"provider","name","station_id","latitude","longitude","docks","duration_minutes","start_station_count","year","end_count"
"santander","Podium, Queen Elizabeth Olympic Park",789,"51.538718","-0.011889","40","37.40","16096",2018,"16293"
"santander","Baylis Road, Waterloo",272,"51.501445","-0.110699","22","16.18","29393",2018,"30367"
"santander","Porchester Place, Paddington",169,"51.514746","-0.165164","18","21.50","17635",2018,"16222"
"santander","Cromer Street, Bloomsbury",793,"51.528279","-0.119559","28","16.30","8441",2018,"7635"
"santander","Waterloo Place, St. James's",160,"51.506633","-0.131774","19","30.09","17710",2018,"18391"
"santander","Queensbridge Road, Haggerston",536,"51.53385","-0.06992","35","16.89","8032",2018,"6566"
"santander","Waterloo Bridge, South Bank",377,"51.505354","-0.113657","15","20.58","7565",2018,"8029"
"santander","Stamford Street, South Bank",197,"51.505569","-0.111607","27","16.90","16468",2018,"18065"
"santander","Battersea Church Road, Battersea",700,"51.476965","-0.174347","24","18.83","10369",2018,"9541"
"santander","Flamborough Street, Limehouse",480,"51.512871","-0.038987","25","19.44","18967",2018,"18834"
"santander","Pott Street, Bethnal Green",479,"51.527152","-0.058005","19","16.06","16708",2018,"15651"
"santander","Moor Street, Soho",386,"51.513528","-0.130111","16","21.99","19880",2018,"20391"
"santander","Walworth Square, Walworth",725,"51.491327","-0.096519","24","14.38","1095",2018,"831"
"santander","Wendon Street, Old Ford",721,"51.536039","-0.026263","17","19.18","7057",2018,"6576"
"santander","Chrisp Street Market, Poplar",516,"51.5112","-0.014438","18","22.83","5683",2018,"5896"
"santander","Granby Street, Shoreditch",486,"51.525645","-0.069543","37","16.58","17617",2018,"16058"
"santander","South Wharf Road, Paddington",186,"51.517336","-0.175811","14","21.89","18357",2018,"17370"
"santander","Houndsditch, Aldgate",779,"51.514449","-0.077179","28","13.60","12324",2018,"13197"
"santander","Paddington Street, Marylebone",56,"51.520584","-0.154701","16","18.53","11676",2018,"11214"
"santander","Northfields, Wandsworth",688,"51.460952","-0.200668","28","22.36","5422",2018,"5112"
"santander","Ravenscourt Park Station, Hammersmith",668,"51.494224","-0.23677","22","32.19","8713",2018,"9016"
"santander","Breams Buildings, Holborn",84,"51.515937","-0.111778","25","13.80","10902",2018,"10792"
"santander","East Road, Hoxton",50,"51.528673","-0.087459","27","13.91","11491",2018,"10262"
"santander","Paddington Green, Paddington",370,"51.520205","-0.174593","19","22.35","2970",2018,"2365"
"santander","Bruton Street, Mayfair",44,"51.510737","-0.144165","21","21.26","8793",2018,"10109"
"santander","Lambeth North Station, Waterloo",284,"51.499141","-0.112031","20","16.78","9361",2018,"9068"
"santander","George Street, Marylebone",400,"51.517703","-0.154106","26","18.22","15299",2018,"16450"
"santander","Rodney Road , Walworth",223,"51.491485","-0.090221","22","19.37","12842",2018,"11693"
"santander","Prince of Wales Drive, Battersea Park",756,"51.475154","-0.15917","21","23.42","11088",2018,"10524"
"santander","King Edward Street, St Pauls",557,"51.51601","-0.0985","20","14.35","7978",2018,"9134"
"santander","Dock Street, Wapping",237,"51.509786","-0.068162","26","17.79","14535",2018,"14622"
"santander","South Kensington Station, South Kensington",356,"51.494412","-0.173881","15","19.98","32639",2018,"32518"
"santander","Ontario Street, Elephant & Castle",324,"51.49652","-0.101384","14","16.89","14985",2018,"15054"
"santander","London Zoo, The Regent's Park",271,"51.535836","-0.156285","32","27.87","9651",2018,"9067"
"santander","Ethelburga Estate, Battersea Park",658,"51.477292","-0.164786","30","20.61","22288",2018,"21590"
"santander","Cadogan Gardens, Chelsea",395,"51.492462","-0.159919","15","18.28","15917",2018,"16548"
"santander","Boston Place, Marylebone",45,"51.522511","-0.162298","26","18.62","24140",2018,"20433"
"santander","Columbia Road, Shoreditch",401,"51.528187","-0.075375","23","15.89","15655",2018,"13300"
"santander","Charlbert Street, St. John's Wood",7,"51.5343","-0.168074","16","25.26","6496",2018,"5623"
"santander","Stanley Grove, Battersea",690,"51.470475","-0.15213","24","19.58","5180",2018,"4873"
"santander","The Guildhall, Guildhall",120,"51.515735","-0.093081","17","14.23","9112",2018,"9957"
"santander","Saunders Ness Road, Cubitt Town",481,"51.487129","-0.009001","34","41.20","10451",2018,"11262"
"santander","Broadwick Street, Soho",260,"51.513685","-0.135581","18","19.51","11071",2018,"11067"
"santander","Storey's Gate, Westminster",762,"51.500703","-0.129699","21","28.06","40675",2018,"43780"
"santander","Seymour Place, Marylebone",605,"51.520331","-0.163667","29","17.34","13012",2018,"12084"
"santander","Bow Church Station, Bow",495,"51.528169","-0.018703","36","23.89","11058",2018,"10671"
"santander","Barbican Centre, Barbican",275,"51.520045","-0.092176","18","14.89","11737",2018,"12029"
"santander","Felsham Road, Putney",693,"51.464786","-0.215619","18","36.73","7343",2018,"7545"
"santander","Greyhound Road, Hammersmith",635,"51.486062","-0.214428","37","16.78","10836",2018,"10366"
"santander","Pitfield Street Central, Hoxton",569,"51.53213","-0.08299","29","14.71","9815",2018,"7546"
"santander","Kingsway Southbound, Strand",594,"51.513875","-0.117774","33","18.64","13114",2018,"14120"
"santander","Broadcasting House, Marylebone",6,"51.518118","-0.144229","18","18.76","14980",2018,"15263"
"santander","Christopher Street, Liverpool Street",3,"51.521284","-0.084606","31","15.12","16865",2018,"19132"
"santander","Russell Gardens, Olympia",515,"51.500088","-0.211316","24","16.60","5221",2018,"4999"
"santander","Millharbour, Millwall",473,"51.496137","-0.019355","19","27.81","2364",2018,"2496"
"santander","Vauxhall Cross, Vauxhall",74,"51.485917","-0.12447","11","16.87","30583",2018,"30004"
"santander","Crabtree Lane, Fulham",655,"51.482945","-0.219346","27","19.19","7474",2018,"7165"
"santander","Belvedere Road 2, South Bank",819,"51.50621","-0.114842","38","23.27","13236",2018,"13512"
"santander","Calshot Street , King's Cross",70,"51.531361","-0.11707","24","18.06","3877",2018,"2934"
"santander","Westfield Ariel Way, White City",566,"51.509158","-0.224103","42","28.28","7466",2018,"7904"
"santander","Lambeth Road, Vauxhall",139,"51.494881","-0.117975","16","14.99","7951",2018,"7558"
"santander","Wright's Lane, Kensington",157,"51.500398","-0.193068","37","20.19","20353",2018,"21251"
"santander","Bury Place, Holborn",562,"51.51746","-0.12335","21","17.82","10266",2018,"10838"
"santander","St. John's Park, Cubitt Town",504,"51.496454","-0.009506","30","22.37","1667",2018,"1542"
"santander","Vauxhall Bridge , Pimlico",146,"51.488365","-0.129362","33","21.86","6752",2018,"6668"
"santander","Portman Square, Marylebone",514,"51.516204","-0.155525","17","20.19","11865",2018,"12635"
"santander","Cadogan Close, Victoria Park",692,"51.542119","-0.028942","22","25.93","15345",2018,"15070"
"santander","Wormwood Street, Liverpool Street",217,"51.516155","-0.082422","12","14.86","43971",2018,"45071"
"santander","Farringdon Lane, Clerkenwell",72,"51.52352","-0.10834","16","15.53","12635",2018,"12551"
"santander","Bayley Street , Bloomsbury",88,"51.518588","-0.132053","24","17.11","17082",2018,"17695"
"santander","St. James's Square, St. James's",228,"51.507425","-0.134621","39","21.09","27083",2018,"35282"
"santander","Bedford Way, Bloomsbury",287,"51.523673","-0.128378","23","15.90","9524",2018,"8878"
"santander","South Lambeth Road, Vauxhall",600,"51.481747","-0.124642","21","19.30","8077",2018,"7963"
"santander","Allington Street, Victoria",826,"51.496863","-0.142943","28","22.03","24505",2018,"24204"
"santander","Alma Road, Wandsworth",724,"51.457991","-0.184806","28","19.98","4735",2018,"3714"
"santander","Duke Street Hill, London Bridge",732,"51.506304","-0.087263","18","19.70","41430",2018,"42209"
"santander","New Road 1 , Whitechapel",206,"51.518154","-0.062697","36","17.99","17516",2018,"17275"
"santander","Great Suffolk Street, The Borough",645,"51.501732","-0.100292","21","12.93","11993",2018,"11199"
"santander","Howland Street, Fitzrovia",357,"51.520994","-0.139016","30","15.68","17186",2018,"18214"
"santander","Old Brompton Road, South Kensington",216,"51.490946","-0.181191","30","16.26","14595",2018,"13508"
"santander","Falcon Road, Clapham Junction",638,"51.466634","-0.169821","28","16.40","20334",2018,"20443"
"santander","Maclise Road, Olympia",687,"51.497608","-0.211456","26","14.41","11266",2018,"10747"
"santander","Derry Street, Kensington",133,"51.501365","-0.191462","17","17.75","27422",2018,"27924"
"santander","Pont Street, Knightsbridge",143,"51.496887","-0.161204","24","18.35","10879",2018,"11240"
"santander","Stratford Station, Stratford",790,"51.541793","-0.00481","27","30.03","10505",2018,"10807"
"santander","Great Tower Street, Monument",199,"51.510485","-0.08299","22","18.01","29917",2018,"32498"
"santander","Drury Lane, Covent Garden",18,"51.514771","-0.12222","27","16.61","25651",2018,"26042"
"santander","Carey Street, Holborn",232,"51.51501","-0.112753","16","14.39","5280",2018,"5770"
"santander","Bridge Avenue, Hammersmith",730,"51.492085","-0.229117","17","24.10","11363",2018,"11443"
"santander","Bromley High Street, Bow",484,"51.528828","-0.013258","23","32.89","3723",2018,"3632"
"santander","Napier Avenue, Millwall",454,"51.487679","-0.021582","19","26.03","4531",2018,"4527"
"santander","Bramham Gardens, Earl's Court",219,"51.490164","-0.190394","29","17.94","16085",2018,"14775"
"santander","Stewart's Road, Wandsworth Road",714,"51.473117","-0.137235","28","19.53","4747",2018,"4187"
"santander","Walmer Road, Avondale",442,"51.510101","-0.211358","24","16.62","5520",2018,"5215"
"santander","Hibbert Street, Battersea",673,"51.465171","-0.180389","36","21.15","8555",2018,"8502"
"santander","Evesham Street, Avondale",652,"51.511487","-0.21819","28","15.82","3792",2018,"3782"
"santander","Victoria Park Road, Hackney Central",719,"51.536425","-0.054162","34","23.46","17924",2018,"17787"
"santander","Finlay Street, Fulham",615,"51.476885","-0.215896","24","20.30","10934",2018,"10576"
"santander","Christian Street, Whitechapel",489,"51.513074","-0.064094","34","15.62","14724",2018,"11977"
"santander","Grove End Road, St. John's Wood",312,"51.530889","-0.176771","20","25.12","10599",2018,"9311"
"santander","Park Lane , Hyde Park",111,"51.510017","-0.157276","27","43.98","37071",2018,"36243"
"santander","Taviton Street, Bloomsbury",19,"51.525051","-0.131161","30","14.73","13368",2018,"12728"
"santander","Snowsfields, London Bridge",706,"51.502154","-0.083633","31","18.00","14262",2018,"15225"
"santander","Westminster Pier, Westminster",818,"51.501513","-0.123823","27","23.20","17447",2018,"17051"
"santander","Drummond Street , Euston",20,"51.527326","-0.136053","26","15.76","6390",2018,"5124"
"santander","Curzon Street, Mayfair",49,"51.507069","-0.145904","15","22.85","8987",2018,"10208"
"santander","Shouldham Street, Marylebone",396,"51.51809","-0.163609","15","17.29","9879",2018,"9005"
"santander","Lollard Street, Vauxhall",117,"51.492881","-0.114934","25","11.96","12775",2018,"10711"
"santander","Hampstead Road, Euston",98,"51.525542","-0.138231","53","17.01","18921",2018,"14199"
"santander","Queen's Gate, Kensington Gardens",350,"51.501715","-0.179854","20","33.52","30691",2018,"30347"
"santander","Kensington Church Street, Kensington",277,"51.503157","-0.191496","17","21.86","11957",2018,"11780"
"santander","Chelsea Green, Chelsea",220,"51.490665","-0.166485","27","17.35","8939",2018,"9058"
"santander","Grosvenor Crescent, Belgravia",207,"51.501353","-0.153195","18","23.72","4663",2018,"4297"
"santander","Saltoun Road, Brixton",833,"51.460232","-0.115375","42","42.09","8260",2018,"10096"
"santander","Riverlight North, Nine Elms",183,"51.482362","-0.136124","24","17.53","15552",2018,"15036"
"santander","Orsett Terrace, Bayswater",165,"51.517932","-0.183717","15","19.07","4487",2018,"3670"
"santander","Humbolt Road, Fulham",761,"51.483217","-0.211861","26","15.02","9192",2018,"8482"
"santander","Colombo Street, Southwark",240,"51.505459","-0.105692","14","14.48","6036",2018,"6184"
"santander","Waterloo Station 3, Waterloo",154,"51.503792","-0.112824","29","14.14","80330",2018,"75247"
"santander","Panton Street, West End",83,"51.509639","-0.131511","20","24.34","18463",2018,"19715"
"santander","Green Park Station, Mayfair",541,"51.506613","-0.142844","27","28.36","31420",2018,"32870"
"santander","Tyers Gate, Bermondsey",314,"51.500889","-0.083159","35","19.02","11613",2018,"11263"
"santander","Doric Way , Somers Town",25,"51.528834","-0.13225","48","15.80","21048",2018,"17966"
"santander","Abyssinia Close, Clapham Junction",776,"51.460333","-0.167029","19","29.21","5500",2018,"5797"
"santander","Palace Gardens Terrace, Notting Hill",333,"51.508605","-0.193764","37","21.71","15854",2018,"13514"
"santander","Royal Avenue 1, Chelsea",250,"51.489932","-0.162727","10","20.34","7486",2018,"7808"
"santander","Stainsby Road , Poplar",716,"51.515428","-0.023565","24","16.79","7445",2018,"6727"
"santander","Queen Street 1, Bank",101,"51.511553","-0.09294","22","15.60","41430",2018,"41286"
"santander","St. George Street, Mayfair",349,"51.51196","-0.142783","18","20.07","11281",2018,"12846"
"santander","Limerston Street, West Chelsea",573,"51.485587","-0.18119","17","16.87","25552",2018,"25359"
"santander","Plough Terrace, Clapham Junction",734,"51.462306","-0.175407","31","21.28","4722",2018,"4021"
"santander","Fire Brigade Pier, Vauxhall",387,"51.4937","-0.121394","29","18.50","15106",2018,"13163"
"santander","Hermitage Court, Wapping",451,"51.504719","-0.063531","16","13.93","7445",2018,"6391"
"santander","Aberfeldy Street, Poplar",554,"51.513548","-0.005659","16","25.45","1937",2018,"1902"
"santander","Endsleigh Gardens, Euston",214,"51.526838","-0.130504","32","16.35","22683",2018,"21213"
"santander","Belford House, Haggerston",699,"51.536654","-0.07023","39","19.78","7061",2018,"5330"
"santander","Fore Street, Guildhall",509,"51.517842","-0.090075","19","12.74","10636",2018,"11213"
"santander","Shoreditch Park, Hoxton",253,"51.534043","-0.08638","29","16.78","16086",2018,"13055"
"santander","Gunmakers Lane, Old Ford",459,"51.535179","-0.03338","17","21.88","11463",2018,"11099"
"santander","Upper Bank Street, Canary Wharf",570,"51.503083","-0.017676","35","24.46","13803",2018,"13980"
"santander","Wapping High Street, Wapping",134,"51.504904","-0.06797","20","21.61","8897",2018,"8643"
"santander","Pancras Road, King's Cross",34,"51.534124","-0.129387","16","15.25","8684",2018,"8445"
"santander","Aintree Street, Fulham",616,"51.481021","-0.209973","24","16.28","11349",2018,"10721"
"santander","Pennington Street, Wapping",490,"51.508622","-0.065006","45","17.42","4832",2018,"4262"
"santander","Eel Brook Common, Walham Green",618,"51.47626","-0.193254","23","18.56","8523",2018,"7785"
"santander","Flood Street, Chelsea",345,"51.488024","-0.166879","33","15.78","18766",2018,"18118"
"santander","Bolsover Street, Fitzrovia",28,"51.523518","-0.143614","17","17.32","17623",2018,"16426"
"santander","Walnut Tree Walk, Vauxhall",91,"51.493686","-0.111015","19","15.98","9937",2018,"8303"
"santander","Bouverie Street, Temple",27,"51.513821","-0.107928","33","16.10","18796",2018,"20824"
"santander","Aylward Street, Stepney",715,"51.51563","-0.049067","21","13.21","7404",2018,"6462"
"santander","Lee Valley VeloPark, Queen Elizabeth Olympic Park",786,"51.549369","-0.015718","43","30.74","11660",2018,"11324"
"santander","Sandilands Road, Walham Green",769,"51.473611","-0.191803","21","14.13","11749",2018,"11548"
"santander","Triangle Car Park, Hyde Park",248,"51.506452","-0.17028","27","36.37","51514",2018,"50379"
"santander","Riverlight South, Nine Elms",817,"51.481335","-0.138212","25","18.50","11082",2018,"10406"
"santander","Jubilee Street, Stepney",450,"51.515975","-0.053177","28","14.25","8671",2018,"6778"
"santander","Crisp Road, Hammersmith",682,"51.488108","-0.226606","46","23.27","14464",2018,"14562"
"santander","Twig Folly Bridge, Mile End",531,"51.530326","-0.042744","21","18.52","13676",2018,"12348"
"santander","Here East North, Queen Elizabeth Olympic Park",812,"51.548731","-0.022607","27","27.93","4002",2018,"4281"
"santander","Risinghill Street, Angel",339,"51.53332","-0.111781","25","15.38","8789",2018,"4887"
"santander","Northumberland Avenue, Strand",354,"51.506767","-0.123702","35","27.61","19593",2018,"23341"
"santander","Percival Street, Finsbury",544,"51.526153","-0.102208","22","13.75","12253",2018,"10616"
"santander","Goldsmith's Row, Haggerston",534,"51.531864","-0.066035","26","18.10","16396",2018,"13646"
"santander","Houghton Street, Strand",256,"51.513621","-0.116764","15","15.90","6108",2018,"6263"
"santander","Golden Square, Soho",129,"51.511897","-0.137044","18","20.28","15436",2018,"16300"
"santander","Heron Quays DLR, Canary Wharf",556,"51.502661","-0.021596","26","24.74","5821",2018,"5901"
"santander","Notting Hill Gate Station, Notting Hill",225,"51.509353","-0.196422","30","17.78","25050",2018,"21496"
"santander","Austin Road, Battersea Park",664,"51.474376","-0.155443","23","20.77","12239",2018,"11457"
"santander","Bradmead, Battersea Park",614,"51.478172","-0.144691","40","18.94","6037",2018,"5035"
"santander","High Holborn , Covent Garden",358,"51.516226","-0.124826","20","17.63","15336",2018,"15828"
"santander","Holy Trinity Brompton, Knightsbridge",150,"51.497056","-0.168917","27","24.37","12634",2018,"13745"
"santander","Lansdowne Road, Ladbroke Grove",622,"51.507481","-0.205536","29","18.50","14115",2018,"13661"
"santander","Thurtle Road, Haggerston",463,"51.534776","-0.071881","22","15.23","6409",2018,"4749"
"santander","Wellington Arch, Hyde Park",213,"51.50274","-0.149569","36","35.34","45945",2018,"45049"
"santander","Bonny Street, Camden Town",462,"51.541603","-0.138853","44","22.79","17278",2018,"15768"
"santander","Hardwick Street, Clerkenwell",170,"51.527843","-0.108068","30","13.45","10033",2018,"6019"
"santander","Westminster Bridge Road, Elephant & Castle",548,"51.498386","-0.107913","26","17.52","4718",2018,"4328"
"santander","Grenfell Road, Avondale",754,"51.512901","-0.214763","24","17.55","4103",2018,"3956"
"santander","St Martins Close, Camden Town",604,"51.538792","-0.138535","18","20.14","5953",2018,"4960"
"santander","Green Street, Mayfair",138,"51.512276","-0.157437","19","33.47","20500",2018,"20486"
"santander","Ampton Street , Clerkenwell",26,"51.527281","-0.118295","21","14.08","8553",2018,"6796"
"santander","Holborn Circus, Holborn",66,"51.51795","-0.108657","39","14.97","36303",2018,"52323"
"santander","Hop Exchange, The Borough",194,"51.504628","-0.091774","55","18.33","51304",2018,"66856"
"santander","Clifton Road, Maida Vale",255,"51.525575","-0.179593","22","21.94","12340",2018,"11728"
"santander","Leman Street, Aldgate",202,"51.512364","-0.069542","36","15.96","27715",2018,"26639"
"santander","Bayswater Road, Hyde Park",153,"51.511933","-0.174411","27","29.21","28957",2018,"28942"
"santander","Windsor Terrace, Hoxton",30,"51.529154","-0.093422","24","15.03","15563",2018,"12711"
"santander","Kennington Lane Rail Bridge, Vauxhall",270,"51.486343","-0.122492","30","15.82","31676",2018,"31063"
"santander","Queen's Gate (North), Kensington",266,"51.501027","-0.180246","40","23.12","14788",2018,"14268"
"santander","Westbourne Grove, Bayswater",105,"51.51553","-0.190241","26","22.87","11997",2018,"11007"
"santander","Richmond Way, Shepherd's Bush",647,"51.500353","-0.217515","27","15.65","9654",2018,"9383"
"santander","Walworth Road, Elephant & Castle",411,"51.493373","-0.099681","33","22.51","17318",2018,"18503"
"santander","Aberdeen Place, St. John's Wood",394,"51.524826","-0.176268","18","21.18","7681",2018,"6074"
"santander","Crawford Street, Marylebone",43,"51.52026","-0.157184","18","17.61","13984",2018,"13212"
"santander","Foley Street, Fitzrovia",311,"51.519181","-0.140486","24","16.86","8876",2018,"8640"
"santander","Belgrave Road, Victoria",268,"51.493204","-0.144133","28","18.88","17960",2018,"17428"
"santander","Buxton Street 1, Shoreditch",390,"51.521776","-0.068856","40","18.95","7060",2018,"5998"
"santander","Denyer Street, Knightsbridge",209,"51.493584","-0.165101","30","16.72","7823",2018,"7800"
"santander","Finsbury Leisure Centre, St. Luke's",107,"51.526008","-0.096318","20","12.99","27393",2018,"26151"
"santander","Tavistock Place, Bloomsbury",89,"51.52625","-0.12351","19","15.76","13306",2018,"11283"
"santander","Normandy Road, Stockwell",828,"51.473874","-0.112581","29","24.37","7004",2018,"6612"
"santander","Prince Consort Road, Knightsbridge",373,"51.499807","-0.176416","18","17.79","10648",2018,"10942"
"santander","Queen Mother Sports Centre, Victoria",320,"51.493574","-0.139956","26","18.77","15827",2018,"17577"
"santander","Barons Court Station, West Kensington",707,"51.490218","-0.215087","31","11.50","15549",2018,"14002"
"santander","Newby Place, Poplar",530,"51.508896","-0.012413","16","24.87","2938",2018,"3208"
"santander","Knaresborough Place, Earl's Court",296,"51.493632","-0.190603","18","20.08","9770",2018,"9209"
"santander","Old Montague Street, Whitechapel",537,"51.51793","-0.067937","18","14.92","12634",2018,"11957"
"santander","Brushfield Street, Liverpool Street",251,"51.518908","-0.079249","33","16.72","42853",2018,"52053"
"santander","St. John's Wood Church, The Regent's Park",247,"51.530529","-0.167515","50","28.50","8280",2018,"6486"
"santander","Queensdale Road, Shepherd's Bush",736,"51.50659","-0.216104","28","16.70","4102",2018,"4267"
"santander","Soho Square , Soho",109,"51.515631","-0.132329","55","20.84","35811",2018,"41872"
"santander","Eastbourne Mews, Paddington",330,"51.516417","-0.179135","34","20.35","15032",2018,"12337"
"santander","Ashmole Estate, Oval",654,"51.482678","-0.117662","34","17.29","10047",2018,"8672"
"santander","Phene Street, Chelsea",662,"51.484985","-0.16792","24","17.55","12988",2018,"12582"
"santander","Alderney Street, Pimlico",185,"51.488058","-0.140741","13","16.09","14649",2018,"13380"
"santander","Import Dock, Canary Wharf",551,"51.505772","-0.01646","37","22.64","1807",2018,"1767"
"santander","George Place Mews, Marylebone",403,"51.516893","-0.15825","16","18.66","10214",2018,"9968"
"santander","Chancery Lane, Holborn",82,"51.514274","-0.111257","14","16.63","8439",2018,"8531"
"santander","Concert Hall Approach 2, South Bank",336,"51.504942","-0.115533","18","22.57","10030",2018,"12016"
"santander","New Kent Road, The Borough",156,"51.494436","-0.092921","33","18.99","9467",2018,"9172"
"santander","St. Luke's Church, Chelsea",218,"51.489717","-0.170194","20","16.71","12747",2018,"12665"
"santander","Chesilton Road, Fulham",727,"51.475698","-0.205876","23","17.76","13415",2018,"12802"
"santander","Ossulston Street, Somers Town",797,"51.5293","-0.128279","30","16.33","13930",2018,"13569"
"santander","Watney Street, Shadwell",552,"51.511542","-0.056667","27","14.70","13722",2018,"12315"
"santander","Shoreditch Court, Haggerston",698,"51.539084","-0.070329","35","21.88","9310",2018,"8086"
"santander","Old Ford Road, Bethnal Green",485,"51.531127","-0.048017","24","21.57","13263",2018,"12207"
"santander","Malet Street, Bloomsbury",12,"51.521681","-0.130432","48","14.92","26247",2018,"25836"
"santander","Park Road (Baker Street), The Regent's Park",114,"51.524517","-0.158964","22","27.23","14595",2018,"13981"
"santander","Victory Place, Walworth",820,"51.492807","-0.091938","24","17.17","8446",2018,"6779"
"santander","Sidney Road, Stockwell",830,"51.469202","-0.119023","27","22.02","5002",2018,"4977"
"santander","Upcerne Road, West Chelsea",745,"51.47817","-0.182435","29","19.42","7095",2018,"6727"
"santander","Rathbone Street, Fitzrovia",306,"51.518163","-0.135026","16","15.15","10486",2018,"10548"
"santander","Sheepcote Lane, Battersea",632,"51.470539","-0.163042","27","17.39","7020",2018,"6431"
"santander","Santos Road, Wandsworth",767,"51.45706","-0.200806","30","23.85","2082",2018,"1574"
"santander","Westbourne Park Road, Portobello",758,"51.51787","-0.201005","23","21.11","10398",2018,"9667"
"santander","Putney Bridge Road, East Putney",728,"51.461999","-0.206241","29","28.02","3714",2018,"3667"
"santander","Wellington Row, Bethnal Green",533,"51.528222","-0.069743","33","16.61","12104",2018,"10451"
"santander","Exhibition Road Museums, South Kensington",432,"51.496957","-0.173894","22","29.64","21907",2018,"21061"
"santander","Sloane Avenue, Knightsbridge",163,"51.493185","-0.167895","27","16.94","15426",2018,"15146"
"santander","Vicarage Crescent, Battersea",701,"51.472876","-0.176267","27","20.28","15029",2018,"14379"
"santander","Kennington Cross, Kennington",144,"51.48894","-0.111436","47","16.16","16385",2018,"15349"
"santander","Falkirk Street, Hoxton",96,"51.530951","-0.078505","26","16.14","8550",2018,"7737"
"santander","Canton Street, Poplar",487,"51.511811","-0.025626","23","20.35","4471",2018,"4346"
"santander","Hertford Road, De Beauvoir Town",748,"51.537278","-0.079202","24","17.50","13184",2018,"11152"
"santander","Worship Street, Shoreditch",175,"51.521668","-0.079609","51","15.40","15283",2018,"18577"
"santander","Commercial Street, Shoreditch",40,"51.521271","-0.075579","15","16.35","12448",2018,"12652"
"santander","Southwark Street, Bankside",803,"51.50541","-0.098341","23","15.34","9536",2018,"9479"
"santander","BBC White City, White City",601,"51.514767","-0.225787","36","22.56","8422",2018,"8526"
"santander","Dickens Square, Borough",317,"51.496791","-0.093913","31","17.55","4854",2018,"4376"
"santander","Clinton Road, Mile End",522,"51.525941","-0.036017","35","21.58","8012",2018,"8131"
"santander","Albert Square, Stockwell",802,"51.47659","-0.118257","32","19.54","10447",2018,"8970"
"santander","Fashion Street, Whitechapel",236,"51.51838","-0.073439","30","17.46","9856",2018,"9745"
"santander","Rochester Row, Westminster",118,"51.495827","-0.135478","13","17.18","8836",2018,"9717"
"santander","Crosswall, Tower",104,"51.511595","-0.077121","33","17.17","38531",2018,"38872"
"santander","Grosvenor Square, Mayfair",348,"51.51217","-0.150481","16","24.05","13095",2018,"14315"
"santander","Baldwin Street, St. Luke's",319,"51.527026","-0.088543","20","14.60","14607",2018,"14325"
"santander","Lightermans Road, Millwall",475,"51.499041","-0.020157","31","26.98","6227",2018,"6821"
"santander","Ferndale Road, Brixton",832,"51.464019","-0.115782","30","26.47","9623",2018,"10137"
"santander","Cephas Street, Bethnal Green",501,"51.522561","-0.054883","23","14.83","9173",2018,"7867"
"santander","Clerkenwell Green, Clerkenwell",135,"51.52326","-0.104709","21","15.50","22236",2018,"22559"
"santander","Greenland Road, Camden Town",572,"51.539099","-0.141728","36","28.96","17129",2018,"17629"
"santander","King Edward Walk, Waterloo",371,"51.49775","-0.10988","22","15.14","4337",2018,"4062"
"santander","Union Street, The Borough",196,"51.503688","-0.098498","17","16.44","12061",2018,"11666"
"santander","Sutton Street, Shadwell",511,"51.511066","-0.053558","32","16.92","15485",2018,"13698"
"santander","Reardon Street, Wapping",488,"51.506946","-0.058681","22","16.96","12162",2018,"11299"
"santander","Brunswick Square, Bloomsbury",11,"51.523951","-0.122502","24","14.38","14177",2018,"13356"
"santander","Swan Street, The Borough",295,"51.500296","-0.092763","27","15.46","13518",2018,"12355"
"santander","Nevern Place, Earl's Court",332,"51.493343","-0.194758","20","20.59","8281",2018,"7817"
"santander","Birkenhead Street, King's Cross",798,"51.5302","-0.122299","27","18.89","19294",2018,"19243"
"santander","Spencer Park, Wandsworth Common",637,"51.45787","-0.174692","25","29.61","3115",2018,"2756"
"santander","Sardinia Street, Holborn",372,"51.515208","-0.117863","24","14.82","12904",2018,"12973"
"santander","Gas Holders, Battersea Park",834,"51.477966","-0.147857","26","6.00","1",2018,"1"
"santander","Ashley Place, Victoria",177,"51.496161","-0.140948","24","17.72","26754",2018,"28112"
"santander","Penfold Street, Marylebone",402,"51.522892","-0.171682","15","17.91","5090",2018,"4136"
"santander","Woodstock Grove, Shepherd's Bush",613,"51.504038","-0.2174","24","16.14","17707",2018,"17613"
"santander","Empire Square, The Borough",269,"51.500823","-0.089741","46","15.97","12303",2018,"11992"
"santander","Peterborough Road, Sands End",648,"51.46904","-0.196275","30","16.88","3119",2018,"2809"
"santander","Southern Grove, Bow",467,"51.523538","-0.030556","17","14.32","5861",2018,"5116"
"santander","Crinan Street, King's Cross",431,"51.534474","-0.122203","20","21.71","7137",2018,"7331"
"santander","Parkway, Camden Town",456,"51.538071","-0.144664","33","25.81","10699",2018,"11845"
"santander","Durant Street, Bethnal Green",702,"51.528682","-0.06555","24","14.54","11594",2018,"9623"
"santander","Harrington Square 1, Camden Town",90,"51.533019","-0.139175","27","20.43","5053",2018,"3971"
"santander","Sail Street, Vauxhall",441,"51.495656","-0.114605","24","16.68","7732",2018,"6740"
"santander","Cantrell Road, Bow",468,"51.521564","-0.022694","24","21.37","4106",2018,"3488"
"santander","All Saints Church, Portobello",661,"51.516321","-0.202609","36","22.11","18391",2018,"17608"
"santander","Bishop's Bridge Road East, Bayswater",592,"51.5171","-0.18377","20","19.31","8320",2018,"7117"
"santander","Waterloo Road, South Bank",173,"51.50486","-0.113001","15","19.36","13226",2018,"13020"
"santander","Preston's Road, Cubitt Town",563,"51.499286","-0.009152","26","20.98","3098",2018,"3151"
"santander","Regent's Row , Haggerston",553,"51.535678","-0.062546","24","21.22","38887",2018,"36873"
"santander","River Street , Clerkenwell",1,"51.529163","-0.109971","19","12.96","8429",2018,"5729"
"santander","Ingrave Street, Clapham Junction",744,"51.467455","-0.172293","30","26.47","2694",2018,"2566"
"santander","Thorndike Close, West Chelsea",651,"51.480898","-0.183854","23","18.31","8942",2018,"8021"
"santander","Bancroft Road, Bethnal Green",520,"51.526041","-0.047218","21","15.26","9786",2018,"8517"
"santander","Tower Gardens , Tower",130,"51.509506","-0.075459","22","25.18","31451",2018,"33696"
"santander","Monument Street, Monument",587,"51.50964","-0.08497","21","20.42","21416",2018,"23191"
"santander","Southwark Station 1, Southwark",420,"51.504043","-0.105312","28","15.32","8732",2018,"10232"
"santander","Borough Road, Elephant & Castle",92,"51.498898","-0.100441","41","15.70","10960",2018,"10797"
"santander","Morie Street, Wandsworth",629,"51.459954","-0.190184","28","24.14","2439",2018,"2771"
"santander","Macclesfield Rd, St Lukes",351,"51.529423","-0.097122","28","15.23","14008",2018,"10307"
"santander","Fawcett Close, Battersea",642,"51.469162","-0.174486","36","21.98","3150",2018,"2732"
"santander","Vincent Square, Westminster",299,"51.493985","-0.136929","18","19.41","6410",2018,"6179"
"santander","Here East South, Queen Elizabeth Olympic Park",816,"51.546533","-0.020598","28","29.52","3120",2018,"2968"
"santander","Red Lion Street, Holborn",436,"51.51824","-0.11655","35","14.47","24152",2018,"22610"
"santander","Prince Albert Road, The Regent's Park",329,"51.535893","-0.160854","24","26.11","13402",2018,"12490"
"santander","Shadwell Station, Shadwell",449,"51.511088","-0.057159","34","16.88","17034",2018,"15634"
"santander","Norton Folgate, Liverpool Street",122,"51.521114","-0.07887","23","17.13","15154",2018,"17521"
"santander","Battersea Park Road, Nine Elms",631,"51.479502","-0.141771","23","18.46","10227",2018,"8873"
"santander","Bunhill Row, Moorgate",331,"51.520859","-0.089888","30","13.36","20909",2018,"24623"
"santander","Simpson Street, Clapham Junction",653,"51.470847","-0.170704","25","19.02","12163",2018,"11951"
"santander","Lower Thames Street, Monument",276,"51.509302","-0.084985","24","27.14","9763",2018,"9762"
"santander","Shepherd's Bush Road North, Shepherd's Bush",667,"51.501595","-0.222293","33","21.08","8267",2018,"8307"
"santander","Gloucester Road (North), Kensington",97,"51.497925","-0.183835","17","18.28","14472",2018,"14243"
"santander","Curlew Street, Shad Thames",298,"51.50228","-0.074189","19","19.41","22387",2018,"21950"
"santander","York Hall, Bethnal Green",446,"51.528936","-0.055894","26","17.27","17277",2018,"15796"
"santander","Knightsbridge, Hyde Park",222,"51.502757","-0.15535","42","40.40","14319",2018,"8732"
"santander","Vicarage Gate, Kensington",103,"51.504724","-0.192539","17","19.88","7034",2018,"5835"
"santander","Monier Road, Hackney Wick",783,"51.540312","-0.02163","26","21.17","13105",2018,"13064"
"santander","Victoria & Albert Museum, South Kensington",781,"51.495898","-0.173009","28","23.50","11892",2018,"12684"
"santander","Southerton Road, Hammersmith",598,"51.494499","-0.228188","37","28.75","7811",2018,"7976"
"santander","Princes Square, Bayswater",261,"51.513489","-0.191351","15","28.13","7287",2018,"5882"
"santander","Sumner Place, South Kensington",172,"51.491212","-0.173716","19","17.54","8888",2018,"8932"
"santander","Gaywood Street, Elephant & Castle",549,"51.49605","-0.104193","43","18.82","9289",2018,"9083"
"santander","Cadogan Place, Knightsbridge",211,"51.494645","-0.158106","34","22.02","8747",2018,"10067"
"santander","East India DLR, Blackwall",547,"51.509474","-0.002275","51","28.55","5293",2018,"5375"
"santander","Embankment (Savoy), Strand",309,"51.509631","-0.119048","41","25.76","13251",2018,"15438"
"santander","Edgware Road Station, Marylebone",410,"51.519968","-0.169774","64","25.00","13182",2018,"10537"
"santander","Parson's Green , Parson's Green",596,"51.472817","-0.199783","21","17.86","16530",2018,"15874"
"santander","Warwick Square, Pimlico",178,"51.489856","-0.141924","19","17.06","11790",2018,"9500"
"santander","Goswell Road (City Uni), Finsbury",344,"51.528246","-0.101026","17","16.73","8678",2018,"7135"
"santander","All Saints' Road, Portobello",643,"51.519043","-0.204764","22","23.15","6306",2018,"5796"
"santander","Strand, Strand",174,"51.512529","-0.115163","35","18.66","13551",2018,"14885"
"santander","Salmon Lane, Limehouse",542,"51.514115","-0.033828","32","19.26","10313",2018,"10018"
"santander","Farm Street, Mayfair",382,"51.509352","-0.14745","15","19.97","5784",2018,"6319"
"santander","Teversham Lane, Stockwell",669,"51.476149","-0.123259","39","21.40","4343",2018,"4527"
"santander","Great Titchfield Street, Fitzrovia",81,"51.520253","-0.141327","19","15.15","14755",2018,"14617"
"santander","St. Chad's Street, King's Cross",4,"51.530059","-0.120974","23","17.51","9296",2018,"10679"
"santander","Fisherman's Walk West, Canary Wharf",448,"51.50623","-0.02296","36","23.96","11790",2018,"11777"
"santander","Vereker Road, West Kensington",633,"51.489591","-0.209379","31","16.93","13192",2018,"12356"
"santander","Brick Lane Market, Shoreditch",399,"51.522618","-0.071654","24","20.08","16712",2018,"16421"
"santander","Snow Hill, Farringdon",393,"51.517334","-0.103604","12","13.50","17865",2018,"17498"
"santander","Cotton Garden Estate, Kennington",62,"51.490758","-0.106324","23","14.53","6861",2018,"5900"
"santander","Maida Vale, Maida Vale",8,"51.529857","-0.183486","38","22.26","2298",2018,"1971"
"santander","Natural History Museum, South Kensington",378,"51.495593","-0.179078","42","21.02","16229",2018,"16167"
"santander","Pall Mall East, West End",233,"51.50777","-0.1307","22","29.34","21278",2018,"25651"
"santander","East Ferry Road, Cubitt Town",455,"51.49447","-0.014409","17","27.07","3006",2018,"3118"
"santander","Culvert Road, Battersea",750,"51.471096","-0.15785","26","18.72","5464",2018,"4755"
"santander","St. George's Square, Pimlico",294,"51.488226","-0.135636","16","16.97","14708",2018,"13698"
"santander","The Tennis Courts, The Regent's Park",315,"51.525367","-0.153464","16","28.75","12789",2018,"12445"
"santander","Surrey Lane, Battersea",620,"51.47518","-0.167161","28","17.27","9495",2018,"8553"
"santander","Exhibition Road, Knightsbridge",428,"51.499917","-0.174554","18","21.91","33034",2018,"34971"
"santander","West Kensington Station, West Kensington",660,"51.490871","-0.20603","22","16.07","8292",2018,"7834"
"santander","Wynne Road, Stockwell",829,"51.469217","-0.112687","25","26.39","3624",2018,"3722"
"santander","Blackfriars Road, Southwark",792,"51.505461","-0.104541","42","18.87","16324",2018,"16306"
"santander","Islington Green, Angel",695,"51.536384","-0.102758","20","20.66","25196",2018,"23762"
"santander","Southwark Station 2, Southwark",421,"51.504044","-0.104778","43","16.26","17689",2018,"17178"
"santander","Poured Lines, Bankside",230,"51.506693","-0.103137","30","17.91","13381",2018,"13804"
"santander","Queen Victoria Street, St. Paul's",136,"51.511962","-0.097442","31","18.35","19946",2018,"21458"
"santander","Albert Bridge Road, Battersea Park",710,"51.474392","-0.163348","18","23.01","14163",2018,"13562"
"santander","Colet Gardens, Hammersmith",608,"51.491093","-0.216493","30","21.90","1277",2018,"1514"
"santander","Mostyn Grove, Bow",470,"51.530535","-0.025492","46","20.99","7605",2018,"7275"
"santander","South Parade, Chelsea",430,"51.48902","-0.17524","18","15.96","7730",2018,"7762"
"santander","Kingsway, Covent Garden",283,"51.514409","-0.118479","16","16.81","5035",2018,"4838"
"santander","Upper Grosvenor Street, Mayfair",389,"51.510131","-0.155758","18","31.53","5206",2018,"4513"
"santander","Westminster University, Marylebone",257,"51.522482","-0.154907","16","23.49","9926",2018,"9537"
"santander","Southampton Street, Strand",388,"51.510702","-0.121724","14","21.44","18398",2018,"19938"
"santander","Aquatic Centre, Queen Elizabeth Olympic Park",785,"51.54094","-0.010511","62","43.63","40428",2018,"40327"
"santander","Ada Street, Hackney Central",718,"51.535717","-0.060292","45","20.28","15384",2018,"15892"
"santander","Ackroyd Drive, Bow",505,"51.520398","-0.026768","29","16.01","7743",2018,"6927"
"santander","South Quay East, Canary Wharf",494,"51.50196","-0.016251","36","38.59","1059",2018,"1192"
"santander","Harford Street, Mile End",550,"51.521564","-0.039264","22","14.79","6959",2018,"6142"
"santander","Whiston Road, Haggerston",466,"51.534464","-0.076341","21","17.93","9046",2018,"7017"
"santander","Dorset Square, Marylebone",201,"51.522597","-0.161113","16","20.43","12510",2018,"12762"
"santander","Eccleston Place, Victoria",167,"51.493951","-0.147624","19","19.81","24622",2018,"24519"
"santander","Horseferry Road, Westminster",221,"51.494816","-0.130459","13","16.12","14393",2018,"14680"
"santander","Halford Road, West Kensington",782,"51.483911","-0.197609","23","18.22","11250",2018,"10906"
"santander","Finsbury Square , Moorgate",140,"51.520963","-0.085634","33","14.95","19464",2018,"21280"
"santander","Hortensia Road, West Brompton",739,"51.481766","-0.185274","28","16.29","10259",2018,"9914"
"santander","Farringdon Street, Holborn",835,"51.516785","-0.104948","24","14.07","1274",2018,"1131"
"santander","Central House, Aldgate",33,"51.5156","-0.070056","18","20.07","18400",2018,"18145"
"santander","Lancaster Gate , Bayswater",524,"51.511654","-0.179668","38","25.86","16235",2018,"12395"
"santander","St. Bride Street, Holborn",703,"51.51506","-0.105344","24","14.83","21930",2018,"26455"
"santander","Drayton Gardens, West Chelsea",589,"51.487196","-0.179369","17","15.69","17719",2018,"17613"
"santander","Museum of London, Barbican",126,"51.517821","-0.096497","51","14.56","19479",2018,"19210"
"santander","East Village, Queen Elizabeth Olympic Park",784,"51.546326","-0.009935","33","35.63","10689",2018,"10853"
"santander","Great Dover Street, The Borough",61,"51.497383","-0.089447","32","16.90","12455",2018,"11135"
"santander","Naval Row, Blackwall",538,"51.508981","-0.00699","21","23.99","4742",2018,"4802"
"santander","Brook Green South, Brook Green",634,"51.494347","-0.215805","33","17.78","8945",2018,"8479"
"santander","Charlotte Street, Fitzrovia",381,"51.51953","-0.135777","14","15.03","12556",2018,"12574"
"santander","Eaton Square, Belgravia",124,"51.496545","-0.150905","20","20.71","8311",2018,"7822"
"santander","Sirdar Road, Avondale",740,"51.510929","-0.214595","26","16.17","3187",2018,"3141"
"santander","Montpelier Street, Knightsbridge",292,"51.498884","-0.165472","16","25.24","16398",2018,"16817"
"santander","Mile End Stadium, Mile End",712,"51.518541","-0.034904","22","17.16","10120",2018,"9416"
"santander","Kensington Town Hall, Kensington",375,"51.501946","-0.194393","18","20.02","6215",2018,"5898"
"santander","Royal London Hospital, Whitechapel",282,"51.519064","-0.059642","41","15.28","24148",2018,"23612"
"santander","New North Road 1, Hoxton",327,"51.53095","-0.085603","22","14.25","4564",2018,"2278"
"santander","Fulham Broadway, Walham Green",737,"51.479933","-0.194117","26","17.51","29018",2018,"29004"
"santander","Bishop's Bridge Road West, Bayswater",568,"51.51616","-0.18697","18","17.70","14868",2018,"13941"
"santander","Star Road, West Kensington",720,"51.487244","-0.205279","22","18.25","8342",2018,"7953"
"santander","Ebury Bridge, Pimlico",424,"51.490491","-0.149186","29","19.59","12070",2018,"10919"
"santander","Clifton Street, Shoreditch",323,"51.523196","-0.083067","23","15.35","7486",2018,"7905"
"santander","Queen's Gate (Central), South Kensington",231,"51.493968","-0.178732","31","18.88","9975",2018,"9895"
"santander","Lower Marsh, Waterloo",347,"51.500139","-0.113936","15","17.49","12413",2018,"12679"
"santander","William IV Street, Strand",64,"51.509462","-0.124749","26","19.53","27765",2018,"33372"
"santander","Tachbrook Street, Victoria",148,"51.492111","-0.138365","16","15.54","13149",2018,"12692"
"santander","Kennington Road Post Office, Oval",149,"51.484789","-0.110683","17","18.93","9916",2018,"9176"
"santander","Vauxhall Walk, Vauxhall",437,"51.488124","-0.120903","26","18.26","8550",2018,"8432"
"santander","Pindar Street, Liverpool Street",41,"51.520955","-0.083494","24","14.45","13853",2018,"14032"
"santander","Gwendwr Road, West Kensington",770,"51.491026","-0.209121","30","19.27","6968",2018,"6566"
"santander","Red Lion Square, Holborn",23,"51.519435","-0.119123","16","14.33","9606",2018,"9132"
"santander","New Inn Yard, Shoreditch",58,"51.524527","-0.079248","20","16.11","18874",2018,"19153"
"santander","Finnis Street, Bethnal Green",722,"51.524584","-0.058631","19","13.80","10138",2018,"9012"
"santander","Lord's, St. John's Wood",363,"51.529121","-0.171185","24","22.14","3420",2018,"2387"
"santander","Park Street, Bankside",10,"51.505974","-0.092754","18","20.07","8498",2018,"8603"
"santander","Danvers Street, West Chelsea",610,"51.482568","-0.172078","21","20.09","10549",2018,"10179"
"santander","Newgate Street , St. Paul's",71,"51.515419","-0.098851","32","15.98","32948",2018,"38453"
"santander","Braham Street, Aldgate",115,"51.514234","-0.073538","33","16.89","16418",2018,"16570"
"santander","Westfield Southern Terrace ,Shepherd's Bush",571,"51.506256","-0.218337","29","20.16","6274",2018,"6993"
"santander","Bethnal Green Garden, Bethnal Green",444,"51.52568","-0.055312","23","18.11","12734",2018,"11539"
"santander","Chadwell Street, Angel",254,"51.530516","-0.106408","18","14.29","16836",2018,"14092"
"santander","Wells Street, Fitzrovia",313,"51.517344","-0.138073","37","17.29","17376",2018,"17552"
"santander","Sea Containers, South Bank",839,"51.508033","-0.106824","28","10.45","159",2018,"251"
"santander","Bethnal Green Road, Shoreditch",132,"51.523648","-0.074755","38","16.97","42886",2018,"42243"
"santander","Hatton Wall, Holborn",17,"51.521661","-0.109006","26","14.80","23442",2018,"23582"
"santander","St Mary's Hospital, Paddington",290,"51.518268","-0.171103","20","23.25","27085",2018,"25632"
"santander","Rifle Place, Avondale",771,"51.509224","-0.216016","21","17.63","4045",2018,"4005"
"santander","Liverpool Road (N1 Centre), Angel",234,"51.534504","-0.106993","24","15.66","18220",2018,"17803"
"santander","Ilchester Place, Kensington",145,"51.500744","-0.202759","24","22.93","4155",2018,"3534"
"santander","New Cavendish Street, Marylebone",581,"51.519167","-0.147983","18","16.55","13303",2018,"13573"
"santander","Page Street, Westminster",558,"51.493978","-0.127554","24","14.78","16691",2018,"17985"
"santander","LMU Commercial Road, Whitechapel",200,"51.514925","-0.066078","14","17.00","12655",2018,"11612"
"santander","Northington Street , Holborn",22,"51.522264","-0.114079","19","13.60","15952",2018,"15678"
"santander","Oxford Road, Putney",743,"51.460792","-0.212608","29","25.39","4798",2018,"4862"
"santander","Selby Street, Whitechapel",565,"51.521905","-0.063386","17","11.97","4843",2018,"4500"
"santander","Clapham Common North Side, Clapham Common",768,"51.461344","-0.159322","37","27.67","12313",2018,"11373"
"santander","Osiers Road, Wandsworth",685,"51.46067","-0.198735","30","16.83","7756",2018,"7674"
"santander","Kensington Olympia Station, Olympia",293,"51.498158","-0.209494","25","15.14","6399",2018,"5754"
"santander","Frith Street, Soho",383,"51.513103","-0.131214","18","22.38","17066",2018,"18653"
"santander","Old Quebec Street, Marylebone",99,"51.514578","-0.158264","16","27.01","22961",2018,"23190"
"santander","Cranmer Road, Stockwell",827,"51.479601","-0.111472","22","21.87","7931",2018,"8204"
"santander","Harriet Street, Knightsbridge",368,"51.500242","-0.159341","25","23.32","13670",2018,"14272"
"santander","Stebondale Street, Cubitt Town",476,"51.489096","-0.009205","28","35.51","1674",2018,"2316"
"santander","Bevington Road West, North Kensington",807,"51.5212","-0.208888","24","25.17","9962",2018,"9542"
"santander","Clarkson Street, Bethnal Green",507,"51.528692","-0.059091","30","14.71","7362",2018,"6053"
"santander","Manresa Road, Chelsea",529,"51.486892","-0.170983","17","16.32","11588",2018,"11481"
"santander","Bricklayers Arms, Borough",94,"51.495061","-0.085814","28","18.24","16854",2018,"15903"
"santander","Kennington Station, Kennington",435,"51.488852","-0.105593","21","16.83","9627",2018,"9622"
"santander","Pembridge Villas, Notting Hill",337,"51.511085","-0.197525","16","23.25","9748",2018,"8527"
"santander","Butler Place, Westminster",359,"51.49783","-0.135441","18","20.28","8487",2018,"9030"
"santander","Wandsworth Town Station, Wandsworth",621,"51.460864","-0.187427","33","19.71","12594",2018,"12848"
"santander","Emperor's Gate, South Kensington",128,"51.495362","-0.185297","22","17.01","9129",2018,"9185"
"santander","Furze Green, Bow",499,"51.519265","-0.021345","36","17.83","11118",2018,"10840"
"santander","Clarence Walk, Stockwell",630,"51.470733","-0.126994","28","24.49","5787",2018,"5115"
"santander","Sugden Road, Clapham",609,"51.465124","-0.157788","19","20.21","6924",2018,"5797"
"santander","Hoxton Street, Hoxton",588,"51.52959","-0.0801","27","17.03","8353",2018,"6828"
"santander","Ormonde Gate, Chelsea",747,"51.487964","-0.161765","22","17.19","10943",2018,"10543"
"santander","Lavington Street, Bankside",801,"51.505224","-0.098032","29","16.22","15436",2018,"15260"
"santander","Argyll Road, Kensington",168,"51.500401","-0.195456","19","21.13","8047",2018,"7826"
"santander","Bourne Street, Belgravia",259,"51.490959","-0.153233","13","18.84","6293",2018,"6229"
"santander","Dorothy Road, Clapham Junction",683,"51.465064","-0.163751","27","17.44","7585",2018,"6923"
"santander","Grafton Street, Mayfair",53,"51.509992","-0.143495","18","19.34","7411",2018,"9407"
"santander","Hammersmith Road, Hammersmith",595,"51.493267","-0.21985","20","19.88","13251",2018,"12906"
"santander","West Smithfield Rotunda, Farringdon",203,"51.518219","-0.100791","15","14.12","21566",2018,"21586"
"santander","Harrington Square 2, Camden Town",425,"51.533379","-0.139159","38","18.87","11842",2018,"10849"
"santander","Spanish Road, Clapham Junction",689,"51.459225","-0.180885","30","23.05","2628",2018,"1940"
"santander","Finsbury Circus, Liverpool Street",55,"51.517075","-0.086686","33","14.84","37015",2018,"40334"
"santander","Heath Road, Battersea",677,"51.468669","-0.146545","26","22.73","5339",2018,"4700"
"santander","Harcourt Terrace, West Brompton",757,"51.487959","-0.187405","24","17.57","12600",2018,"11448"
"santander","Killick Street, King's Cross",439,"51.5338","-0.118677","22","17.58","5997",2018,"4928"
"santander","Bell Lane, Liverpool Street",506,"51.517475","-0.075855","23","16.05","13332",2018,"13323"
"santander","Guilford Street , Bloomsbury",57,"51.523347","-0.120203","32","15.02","16565",2018,"16542"
"santander","Vauxhall Street, Vauxhall",352,"51.486965","-0.116625","17","17.22","5333",2018,"5573"
"santander","Westbridge Road, Battersea",680,"51.477685","-0.170329","26","18.32","20973",2018,"20191"
"santander","Orbel Street, Battersea",679,"51.474535","-0.170211","25","17.26","8441",2018,"7645"
"santander","St. John's Road, Clapham Junction",764,"51.462393","-0.168292","33","22.45","9016",2018,"10240"
"santander","Courland Grove, Wandsworth Road",624,"51.472918","-0.132103","40","17.66","7143",2018,"6816"
"santander","Nesham Street, Wapping",46,"51.507131","-0.06691","15","13.38","27958",2018,"27277"
"santander","Chapel Place, Marylebone",141,"51.515308","-0.147204","28","18.34","14448",2018,"15249"
"santander","Wellington Street , Strand",338,"51.511756","-0.119643","24","18.86","25647",2018,"28007"
"santander","Milroy Walk, South Bank",195,"51.507244","-0.106238","29","15.18","26308",2018,"26191"
"santander","Park Lane, Mayfair",733,"51.505426","-0.150817","18","29.91","10026",2018,"9883"
"santander","St. Peter's Terrace, Fulham",729,"51.478939","-0.208485","24","14.48","13982",2018,"13334"
"santander","London Zoo Car Park, The Regent's Park",343,"51.536922","-0.150181","36","22.92","10181",2018,"9200"
"santander","Gloucester Terrace, Bayswater",176,"51.517919","-0.188099","23","19.22","9521",2018,"8545"
"santander","Golden Lane, Barbican",54,"51.521748","-0.094475","27","13.10","14069",2018,"14299"
"santander","Aston Street, Stepney",461,"51.516","-0.038775","26","19.28","4908",2018,"4508"
"santander","Gloucester Road Station, South Kensington",405,"51.494186","-0.182671","15","16.95","25468",2018,"25012"
"santander","Bell Street , Marylebone",182,"51.522029","-0.165843","18","16.97","11927",2018,"11227"
"santander","Old Street Station, St. Luke's",73,"51.525726","-0.088486","37","15.52","33875",2018,"35116"
"santander","Jubilee Gardens, South Bank",252,"51.504636","-0.116542","30","26.98","16470",2018,"20841"
"santander","Earnshaw Street , Covent Garden",244,"51.516119","-0.128585","17","18.86","14470",2018,"15043"
"santander","Hampton Street, Walworth",152,"51.49217","-0.101537","21","17.14","10769",2018,"9973"
"santander","Hampstead Road (Cartmel), Euston",21,"51.530078","-0.138846","15","17.22","4733",2018,"3750"
"santander","Southwick Street, Paddington",265,"51.515953","-0.169249","17","18.59","13158",2018,"11842"
"santander","Mudchute DLR, Cubitt Town",586,"51.490645","-0.014582","31","20.62","3276",2018,"3367"
"santander","Maplin Street, Mile End",492,"51.525501","-0.032267","39","19.88","22363",2018,"21249"
"santander","Grosvenor Road, Pimlico",245,"51.485357","-0.142207","29","20.73","7352",2018,"5864"
"santander","Collingham Gardens, Earl's Court",171,"51.491616","-0.186754","14","17.24","8126",2018,"7542"
"santander","Addison Road, Holland Park",606,"51.504199","-0.210941","25","19.80","4696",2018,"4648"
"santander","Gower Place , Euston",65,"51.525228","-0.135189","16","14.81","12243",2018,"10817"
"santander","Frampton Street, Paddington",238,"51.523353","-0.175116","32","25.63","6188",2018,"5321"
"santander","Arlington Road, Camden Town",545,"51.539957","-0.145246","20","24.96","9365",2018,"9137"
"santander","North Wharf Road, Paddington",279,"51.518622","-0.176646","25","19.97","12120",2018,"10849"
"santander","Hawley Crescent, Camden Town",713,"51.541007","-0.143261","22","29.78","6620",2018,"6753"
"santander","Whitehall Place, Strand",229,"51.506543","-0.12318","23","25.14","33440",2018,"35388"
"santander","Fanshaw Street, Hoxton",31,"51.529537","-0.083353","34","15.19","15916",2018,"13867"
"santander","Belgrave Square, Belgravia",181,"51.499412","-0.152318","21","23.69","6828",2018,"6503"
"santander","Driffield Road, Old Ford",521,"51.534137","-0.037366","19","25.32","12016",2018,"11702"
"santander","Leonard Circus , Shoreditch",32,"51.524696","-0.084439","43","14.86","28222",2018,"30254"
"santander","Seville Street, Knightsbridge",166,"51.501855","-0.159237","27","30.14","15797",2018,"15637"
"santander","Nantes Close, Wandsworth",623,"51.461931","-0.180792","21","19.89","4351",2018,"4038"
"santander","Lansdowne Walk, Ladbroke Grove",543,"51.509591","-0.204666","21","22.46","3607",2018,"2860"
"santander","Westferry DLR, Limehouse",510,"51.509303","-0.025996","39","22.79","14956",2018,"17008"
"santander","Belgrove Street , King's Cross",14,"51.529944","-0.123617","44","15.98","91757",2018,"88587"
"santander","Neville Gill Close, Wandsworth",684,"51.454753","-0.195197","31","38.36","5195",2018,"5697"
"santander","Finsbury Library , Finsbury",51,"51.526718","-0.104298","29","16.30","10973",2018,"9709"
"santander","Blackfriars Station, St. Paul's",659,"51.511934","-0.103079","34","26.74","1150",2018,"1382"
"santander","Turquoise Island, Notting Hill",379,"51.514312","-0.200838","21","21.01","15056",2018,"13924"
"santander","Greycoat Street , Westminster",353,"51.494591","-0.134234","17","16.74","5834",2018,"5828"
"santander","Haggerston Road, Haggerston",749,"51.539329","-0.074285","37","22.50","14080",2018,"13254"
"santander","Harper Road, The Borough",249,"51.498598","-0.096191","42","17.65","7335",2018,"7501"
"santander","Nutford Place, Marylebone",188,"51.516518","-0.164394","18","28.23","9970",2018,"9190"
"santander","The Vale, Chelsea",755,"51.485122","-0.174972","24","17.50","15463",2018,"15365"
"santander","Bishop's Avenue, Fulham",681,"51.473037","-0.21475","46","22.91","10581",2018,"10619"
"santander","Waterloo Station 2, Waterloo",361,"51.50392","-0.113426","55","16.27","37581",2018,"26383"
"santander","Euston Square Gardens, Euston",795,"51.527068","-0.131861","30","19.38","6696",2018,"6433"
"santander","Stanhope Gate, Mayfair",380,"51.506864","-0.150667","21","23.65","7676",2018,"7772"
"santander","Marloes Road, Kensington",384,"51.496481","-0.192404","15","20.07","5759",2018,"5456"
"santander","Coomer Place, West Kensington",639,"51.483571","-0.202039","25","15.06","12691",2018,"12355"
"santander","South Park, Sands End",636,"51.467064","-0.193502","28","13.49","11249",2018,"10605"
"santander","Ram Street, Wandsworth",766,"51.457529","-0.192166","23","20.49","10548",2018,"10738"
"santander","Caldwell Street, Stockwell",603,"51.477839","-0.116493","43","20.74","11084",2018,"11840"
"santander","Palace Gate, Kensington Gardens",404,"51.502042","-0.1844","12","34.97","36661",2018,"36214"
"santander","Holland Park, Kensington",398,"51.502319","-0.200742","30","25.38","9122",2018,"6897"
"santander","Doddington Grove, Kennington",580,"51.486929","-0.102996","36","18.63","11411",2018,"10986"
"santander","Hansard Mews, Holland Park",527,"51.503802","-0.215808","20","19.78","6246",2018,"6631"
"santander","Little Brook Green, Brook Green",775,"51.496664","-0.223868","33","18.29","7448",2018,"7625"
"santander","Albert Embankment, Vauxhall",100,"51.490436","-0.122807","24","21.56","10730",2018,"9381"
"santander","Antill Road, Mile End",518,"51.528224","-0.037471","29","20.31","8701",2018,"7588"
"santander","Teviot Street, Poplar",519,"51.518811","-0.011662","33","30.08","1456",2018,"1432"
"santander","Tavistock Street, Covent Garden",335,"51.511968","-0.120719","32","18.47","17635",2018,"21784"
"santander","Erin Close, Walham Green",691,"51.479464","-0.195777","23","17.81","15872",2018,"15972"
"santander","Battersea Power Station, Battersea Park",821,"51.483507","-0.147715","27","25.34","19736",2018,"18031"
"santander","Queen's Circus, Battersea Park",625,"51.477619","-0.149552","27","26.70","21964",2018,"21202"
"santander","Devons Road, Bow",496,"51.52512","-0.015578","38","25.58","6392",2018,"6246"
"santander","Clarendon Road, Avondale",663,"51.51323","-0.211594","24","16.29","6345",2018,"5902"
"santander","Lindfield Street, Poplar",469,"51.513757","-0.020467","44","17.94","7304",2018,"7184"
"santander","Cheshire Street, Bethnal Green",445,"51.52388","-0.065076","28","13.98","8771",2018,"6712"
"santander","Murray Grove , Hoxton",63,"51.53089","-0.089783","27","14.82","7857",2018,"5810"
"santander","St. John Street, Finsbury",123,"51.52836","-0.104725","18","16.35","7949",2018,"6353"
"santander","Regency Street, Westminster",267,"51.49206","-0.132225","22","15.21","11156",2018,"10328"
"santander","Imperial Road, Sands End",738,"51.475142","-0.187279","37","18.38","6619",2018,"6358"
"santander","North Audley Street, Mayfair",180,"51.512912","-0.153645","17","22.65","10898",2018,"11306"
"santander","Longford Street, The Regent's Park",76,"51.525595","-0.144084","21","20.52","8002",2018,"6513"
"santander","British Museum, Bloomsbury",24,"51.51908","-0.124678","34","18.98","20066",2018,"19251"
"santander","Ladbroke Grove Central, Ladbroke Grove",560,"51.511624","-0.205921","21","23.28","4057",2018,"2499"
"santander","Stepney Green Station, Stepney",478,"51.521889","-0.04667","20","16.43","18223",2018,"17722"
"santander","Watney Market, Stepney",513,"51.514223","-0.055656","50","16.78","9980",2018,"9368"
"santander","West Cromwell Road, Earl's Court",142,"51.493725","-0.198287","24","18.57","9109",2018,"8393"
"santander","World's End Place, West Chelsea",649,"51.481805","-0.180275","22","17.03","10578",2018,"10301"
"santander","Abbotsbury Road, Holland Park",559,"51.501391","-0.205991","24","19.46","4207",2018,"4008"
"santander","Wellington Road, St. John's Wood",110,"51.533043","-0.172529","17","22.12","7864",2018,"6952"
"santander","Sedding Street, Sloane Square",5,"51.49313","-0.156876","27","17.16","20603",2018,"22703"
"santander","Hurlingham Park, Parsons Green",774,"51.470131","-0.20464","20","19.50","4320",2018,"3967"
"santander","Castlehaven Road, Camden Town",457,"51.542138","-0.145393","29","31.86","17143",2018,"16397"
"santander","Northdown Street, King's Cross",593,"51.531066","-0.11934","21","16.01","9175",2018,"8540"
"santander","Albert Gardens, Stepney",483,"51.51328","-0.047784","32","16.01","11246",2018,"10208"
"santander","Tanner Street, Bermondsey",85,"51.500647","-0.0786","38","19.42","18386",2018,"19016"
"santander","Paddington Green Police Station, Paddington",408,"51.519943","-0.170704","40","28.70","6016",2018,"5071"
"santander","Bath Street, St. Luke's",119,"51.525893","-0.090848","18","12.62","19595",2018,"19698"
"santander","Godliman Street, St. Paul's",48,"51.512484","-0.099141","25","18.12","25960",2018,"27009"
"santander","Strata, Elephant & Castle",409,"51.493146","-0.099828","39","20.30","14815",2018,"14803"
"santander","New Spring Gardens Walk, Vauxhall",813,"51.487807","-0.12276","36","19.00","7969",2018,"9207"
"santander","Grant Road East, Clapham Junction",735,"51.464894","-0.173029","28","15.60","15011",2018,"15598"
"santander","Newton Street, Covent Garden",751,"51.516129","-0.120909","22","14.99","8736",2018,"8851"
"santander","Margery Street, Clerkenwell",204,"51.5266","-0.112433","18","14.29","10791",2018,"9494"
"santander","Trebovir Road, Earl's Court",158,"51.490854","-0.19617","17","17.50","10209",2018,"9696"
"santander","Eversholt Street , Camden Town",131,"51.533005","-0.136793","16","16.91","7660",2018,"6471"
"santander","Holden Street, Battersea",627,"51.468791","-0.158231","20","19.96","4864",2018,"4548"
"santander","Queen Mary's, Mile End",491,"51.522507","-0.041378","45","16.94","14921",2018,"13804"
"santander","Devonshire Square, Liverpool Street",87,"51.516468","-0.079685","16","14.97","14989",2018,"14898"
"santander","Alpha Grove, Millwall",576,"51.497304","-0.022793","23","22.90","3791",2018,"3752"
"santander","Claremont Square, Angel",189,"51.531667","-0.109915","18","16.58","9110",2018,"5496"
"santander","Lots Road, West Chelsea",746,"51.479574","-0.179039","24","17.96","9612",2018,"9105"
"santander","Freston Road, Avondale",741,"51.512981","-0.219487","23","17.70","3860",2018,"3935"
"santander","Usk Road, Clapham Junction",675,"51.463489","-0.182126","30","17.81","7883",2018,"7537"
"santander","Vincent Street, Pimlico",426,"51.493072","-0.129925","17","15.28","8564",2018,"7912"
"santander","Abingdon Villas, Kensington",38,"51.497388","-0.197246","17","16.33","6988",2018,"6960"
"santander","Sopwith Way, Battersea Park",800,"51.481122","-0.149035","30","26.06","15812",2018,"15521"
"santander","Burdett Road, Mile End",460,"51.516196","-0.029138","32","16.75","7842",2018,"8048"
"santander","Long Lane , Bermondsey",308,"51.499076","-0.085666","20","16.33","12050",2018,"11258"
"santander","Berry Street, Clerkenwell",246,"51.522853","-0.099994","41","14.53","24500",2018,"25330"
"santander","Baker Street, Marylebone",121,"51.518913","-0.156167","22","18.50","11888",2018,"11219"
"santander","Woodstock Street, Mayfair",106,"51.514105","-0.147302","21","22.30","8118",2018,"8105"
"santander","Fore Street Avenue, Guildhall",838,"51.518093","-0.091402","24","13.66","1370",2018,"1366"
"santander","Campden Hill Road, Notting Hill",212,"51.506585","-0.199004","17","17.77","5478",2018,"4176"
"santander","Imperial Wharf Station, Sands End",780,"51.474665","-0.183165","25","18.71","18149",2018,"18042"
"santander","Mexfield Road, East Putney",704,"51.456821","-0.202802","18","21.57","2914",2018,"2507"
"santander","Harrowby Street, Marylebone",367,"51.517372","-0.164208","16","17.63","8084",2018,"7197"
"santander","Moorfields, Moorgate",215,"51.519069","-0.088285","53","13.87","26032",2018,"28086"
"santander","Globe Town Market, Bethnal Green",577,"51.528869","-0.047548","20","17.58","11968",2018,"11068"
"santander","Ashley Crescent, Battersea",670,"51.467186","-0.152249","28","21.61","9405",2018,"8834"
"santander","Wood Street, Guildhall",127,"51.517008","-0.093885","16","15.15","10085",2018,"10117"
"santander","LSBU (Borough Road), Elephant & Castle",262,"51.498745","-0.103133","34","18.12","8996",2018,"8577"
"santander","Queen's Gate (South), South Kensington",187,"51.49248","-0.178433","25","19.95","11000",2018,"10631"
"santander","Westferry Circus, Canary Wharf",811,"51.505703","-0.027773","34","23.03","14619",2018,"15022"
"santander","Beaumont Street, Marylebone",242,"51.522008","-0.151359","23","17.94","11830",2018,"10951"
"santander","Belvedere Road 1, South Bank",273,"51.506133","-0.114686","38","20.84","17232",2018,"19375"
"santander","Clapham Road, Lingham Street, Stockwell",814,"51.471433","-0.123671","29","25.66","6775",2018,"6494"
"santander","Ilchester Gardens, Bayswater",584,"51.51244","-0.19096","21","23.00","14229",2018,"12721"
"santander","Black Prince Road, Vauxhall",310,"51.490868","-0.116912","19","15.12","12894",2018,"12075"
"santander","Graham Street, Angel",326,"51.532662","-0.099981","26","16.90","21509",2018,"17717"
"santander","Guildhouse Street, Victoria",161,"51.492346","-0.141334","15","17.31","8125",2018,"7789"
"santander","Hatton Garden, Holborn",67,"51.518826","-0.108028","28","14.36","17514",2018,"16129"
"santander","Sadlers Sports Centre, Finsbury",78,"51.524869","-0.099489","17","13.64","16739",2018,"16006"
"santander","Wardour Street, Soho",192,"51.512515","-0.133202","16","22.79","24575",2018,"25687"
"santander","Geraldine Street, Elephant & Castle",297,"51.496128","-0.106001","17","17.58","3921",2018,"3482"
"santander","Hewison Street, Old Ford",471,"51.533283","-0.028155","19","18.29","7554",2018,"7362"
"santander","Kennington Oval, Oval",440,"51.483145","-0.113134","33","17.40","13168",2018,"13345"
"santander","Bank of England Museum, Bank",340,"51.514441","-0.087587","16","14.85","25542",2018,"27481"
"santander","St. John's Wood Road, St. John's Wood",286,"51.527295","-0.174654","35","17.57","8278",2018,"5650"
"santander","Broadley Terrace, Marylebone",759,"51.524562","-0.165669","18","16.50","4669",2018,"3704"
"santander","Lambeth Palace Road, Waterloo",815,"51.500089","-0.116629","33","18.53","19013",2018,"20026"
"santander","Jewry Street, Aldgate",102,"51.513407","-0.076793","17","18.29","15364",2018,"15710"
"santander","Limburg Road, Clapham Junction",777,"51.461923","-0.165298","21","23.92","3218",2018,"3025"
"santander","Great Marlborough Street, Soho",159,"51.51462","-0.137841","39","20.16","24859",2018,"28017"
"santander","Union Grove, Wandsworth Road",602,"51.472993","-0.133972","44","19.82","9883",2018,"9891"
"santander","Millbank Tower, Pimlico",376,"51.491884","-0.125675","24","19.93","16321",2018,"16044"
"santander","Portland Place, Marylebone",184,"51.520715","-0.145212","34","18.76","12986",2018,"12616"
"santander","Rainville Road, Hammersmith",644,"51.483732","-0.223852","36","17.51","11955",2018,"11603"
"santander","Putney Rail Station, Putney",694,"51.460717","-0.216526","20","40.51","5163",2018,"4932"
"santander","Bankside Mix, Bankside",193,"51.505818","-0.100186","60","16.53","25378",2018,"27680"
"santander","Alfred Place, Bloomsbury",364,"51.519656","-0.132339","41","14.71","16367",2018,"16812"
"santander","Parsons Green Station, Parsons Green",671,"51.475089","-0.201968","56","13.90","20101",2018,"19017"
"santander","City Road, Angel",365,"51.530344","-0.100168","47","15.86","14008",2018,"10018"
"santander","Lexham Gardens, Kensington",155,"51.495867","-0.191934","19","15.33","11765",2018,"11157"
"santander","Penywern Road, Earl's Court",37,"51.491594","-0.192369","17","18.36","14543",2018,"13645"
"santander","Chepstow Villas, Notting Hill",151,"51.512137","-0.201555","26","25.04","10576",2018,"8342"
"santander","Bow Road Station, Bow",498,"51.527058","-0.025296","41","18.20","10249",2018,"9342"
"santander","Lincoln's Inn Fields, Holborn",809,"51.516278","-0.118273","28","16.99","10947",2018,"11422"
"santander","Queen Street 2, Bank",579,"51.511246","-0.093051","34","16.68","24816",2018,"32108"
"santander","Jubilee Plaza, Canary Wharf",532,"51.50357","-0.020068","63","29.41","12120",2018,"11925"
"santander","Princedale Road , Holland Park",611,"51.506465","-0.208487","19","20.98","7094",2018,"6797"
"santander","De Vere Gardens, Kensington",36,"51.501737","-0.184981","28","24.24","15386",2018,"12602"
"santander","Southampton Place, Holborn",162,"51.517607","-0.121328","20","17.67","13851",2018,"14302"
"santander","Montserrat Road , Putney",709,"51.463211","-0.215551","23","27.39","4619",2018,"5220"
"santander","Gloucester Street, Pimlico",243,"51.490963","-0.139625","25","20.67","14342",2018,"12328"
"santander","Silverthorne Road, Battersea",640,"51.472866","-0.148059","27","19.57","9431",2018,"8828"
"santander","Jubilee Crescent, Cubitt Town",447,"51.493381","-0.007542","54","18.68","3923",2018,"3900"
"santander","St John's Crescent, Brixton",831,"51.466232","-0.11318","25","37.61","3594",2018,"4607"
"santander","Little Argyll Street, West End",116,"51.5145","-0.141424","21","22.36","26382",2018,"28462"
"santander","Disraeli Road, Putney",708,"51.461611","-0.216146","33","29.10","7871",2018,"8204"
"santander","Tysoe Street, Clerkenwell",264,"51.526443","-0.109257","20","15.32","20191",2018,"19583"
"santander","Charing Cross Hospital, Hammersmith",696,"51.487285","-0.217996","21","15.88","8850",2018,"8496"
"santander","Arundel Street, Temple",79,"51.511726","-0.113856","18","20.07","6640",2018,"6797"
"santander","Kings Gate House, Westminster",799,"51.497698","-0.137599","24","18.78","5699",2018,"6270"
"santander","Blythe Road West, Shepherd's Bush",657,"51.499681","-0.221792","21","19.02","6734",2018,"6495"
"santander","Stephendale Road, Sands End",723,"51.46822","-0.190346","48","18.44","15405",2018,"15135"
"santander","Clarges Street, Mayfair",528,"51.507326","-0.145827","16","22.69","5668",2018,"5924"
"santander","Palissy Street, Shoreditch",322,"51.526293","-0.073955","26","15.93","8237",2018,"6864"
"santander","Buckingham Gate, Westminster",646,"51.498866","-0.137425","16","25.37","16392",2018,"18101"
"santander","Devonshire Terrace, Bayswater",397,"51.51348","-0.17977","16","22.47","16670",2018,"14675"
"santander","Hollybush Gardens, Bethnal Green",578,"51.527607","-0.057133","31","14.75","8283",2018,"8098"
"santander","York Way, Kings Cross",836,"51.541596","-0.125441","24","18.35","2334",2018,"1856"
"santander","Hyde Park Corner, Hyde Park",191,"51.503118","-0.153521","36","44.28","84768",2018,"83469"
"santander","Black Lion Gate, Kensington Gardens",307,"51.509908","-0.187843","24","36.86","61048",2018,"59527"
"santander","Warwick Road, Olympia",274,"51.496712","-0.205284","36","20.20","9561",2018,"9416"
"santander","Rossmore Road, Marylebone",760,"51.52527","-0.163795","18","17.09","5312",2018,"4394"
"santander","Spindrift Avenue, Millwall",477,"51.49109","-0.018716","36","25.84","3898",2018,"4311"
"santander","Ranelagh Gardens, Fulham",765,"51.467601","-0.206827","39","20.39","5377",2018,"5308"
"santander","Sackville Street, Mayfair",318,"51.510048","-0.138846","18","19.69","14901",2018,"15814"
"santander","Howick Place, Westminster",360,"51.496753","-0.138734","27","18.36","20177",2018,"24202"
"santander","Charles II Street, West End",226,"51.508446","-0.131961","24","26.11","13937",2018,"15493"
"santander","Russell Square Station, Bloomsbury",77,"51.523418","-0.124122","26","16.28","16125",2018,"15571"
"santander","Charlotte Terrace, Angel",697,"51.536392","-0.112721","24","16.42","9036",2018,"6381"
"santander","Claverton Street, Pimlico",291,"51.48484","-0.138089","32","21.15","10655",2018,"9174"
"santander","Somerset House, Strand",564,"51.509943","-0.117619","40","23.90","28581",2018,"31439"
"santander","Fulham Park Road, Fulham",597,"51.473471","-0.20782","27","19.38","9960",2018,"9561"
"santander","South Audley Street, Mayfair",289,"51.50923","-0.151296","14","20.76","4880",2018,"5188"
"santander","Timber Lodge, Queen Elizabeth Olympic Park",787,"51.546805","-0.014691","35","37.42","11572",2018,"11109"
"santander","Gloucester Road (Central), South Kensington",113,"51.496463","-0.183289","19","21.55","8692",2018,"8555"
"santander","Eagle Wharf Road, Hoxton",574,"51.53356","-0.09315","44","14.41","29747",2018,"23648"
"santander","Rampayne Street, Pimlico",190,"51.489976","-0.132846","20","16.12","13910",2018,"13062"
"santander","Great Percy Street, Clerkenwell",227,"51.528916","-0.115481","23","17.88","11659",2018,"10178"
"santander","Handyside Street, King's Cross",806,"51.537241","-0.124807","27","18.58","10768",2018,"9620"
"santander","St. Martin's Street, West End",325,"51.509087","-0.129698","18","26.81","10650",2018,"11829"
"santander","Mile End Park Leisure Centre, Mile End",763,"51.520597","-0.032567","46","17.72","9769",2018,"9004"
"santander","Everington Street, Fulham",711,"51.483357","-0.216306","31","17.00","9474",2018,"8911"
"santander","Esmond Street, Putney",678,"51.462313","-0.211469","30","23.66","2309",2018,"2391"
"santander","New North Road 2, Hoxton",328,"51.53114","-0.086016","22","15.22","5240",2018,"4138"
"santander","Broomhouse Lane, Parsons Green",656,"51.468419","-0.199136","29","15.40","4563",2018,"4385"
"santander","Wren Street, Holborn",433,"51.524564","-0.116279","33","12.51","19240",2018,"16727"
"santander","St. Mary Axe, Aldgate",263,"51.514225","-0.08066","21","17.13","14234",2018,"14919"
"santander","Blenheim Crescent, Ladbroke Grove",742,"51.515108","-0.208565","22","22.65","12060",2018,"11843"
"santander","Serpentine Car Park, Hyde Park",300,"51.505014","-0.17306","18","31.78","25530",2018,"24675"
"santander","William Morris Way, Sands End",628,"51.46882","-0.184319","26","17.91","9627",2018,"9517"
"santander","Lancaster Drive, Blackwall",526,"51.503143","-0.008428","27","20.47","3396",2018,"3187"
"santander","Theobald's Road , Holborn",68,"51.520597","-0.116688","26","14.53","16769",2018,"16596"
"santander","Sancroft Street, Vauxhall",86,"51.489479","-0.115157","24","13.08","8472",2018,"7686"
"santander","Smugglers Way, Wandsworth",665,"51.461084","-0.191723","28","22.35","6142",2018,"6109"
"santander","Hartington Road, Stockwell",676,"51.477871","-0.126874","35","17.94","11169",2018,"10687"
"santander","Olympia Way, Olympia",666,"51.496101","-0.208158","38","19.17","12156",2018,"11262"
"santander","New Fetter Lane, Holborn",546,"51.517428","-0.107987","21","13.81","17973",2018,"17502"
"santander","Wenlock Road , Hoxton",42,"51.530992","-0.093904","28","14.56","17630",2018,"14746"
"santander","Cleveland Gardens, Bayswater",164,"51.515607","-0.183119","16","18.64","9368",2018,"8085"
"santander","Aldersgate Street, Barbican",95,"51.520842","-0.09734","15","12.17","26111",2018,"26420"
"santander","Phillimore Gardens, Kensington",2,"51.499607","-0.197574","37","20.48","15467",2018,"16571"
"santander","Marylebone Lane, Marylebone",301,"51.51476","-0.148105","22","22.06","17410",2018,"18185"
"santander","Euston Road, Euston",69,"51.526236","-0.134408","24","19.91","14175",2018,"12908"
"santander","Cloudesley Road, Angel",93,"51.534409","-0.109025","36","17.11","11687",2018,"6844"
"santander","Chelsea Bridge, Pimlico",419,"51.485821","-0.149004","15","21.06","10902",2018,"9815"
"santander","St. Katharine's Way, Tower",452,"51.505697","-0.070542","24","22.71","13532",2018,"13056"
"santander","Putney Bridge Station, Fulham",607,"51.468814","-0.210279","21","21.74","11289",2018,"11186"
"santander","Stonecutter Street, Holborn",112,"51.51581","-0.10527","20","14.58","10745",2018,"10724"
"santander","Gloucester Avenue, Camden Town",535,"51.537349","-0.147154","24","22.90","11489",2018,"10406"
"santander","Elizabeth Bridge, Victoria",288,"51.49237","-0.147479","34","22.89","18465",2018,"20001"
"santander","Coram Street, Bloomsbury",796,"51.524","-0.12641","29","15.45","10247",2018,"7930"
"santander","Abingdon Green, Westminster",583,"51.497622","-0.125978","20","23.15","20107",2018,"24749"
"santander","Eaton Square (South), Belgravia",423,"51.494561","-0.153934","30","21.19","7091",2018,"7357"
"santander","Cheapside, Bank",427,"51.513971","-0.09294","43","15.66","37646",2018,"38926"
"santander","Torrens Street, Angel",75,"51.5322","-0.105481","19","16.93","14036",2018,"13049"
"santander","Pitfield Street North,Hoxton",465,"51.53558","-0.08249","27","16.28","18721",2018,"15703"
"santander","Fournier Street, Whitechapel",508,"51.519362","-0.074431","18","17.06","17910",2018,"18003"
"santander","Good's Way, King's Cross",804,"51.534668","-0.125079","26","20.14","19442",2018,"19199"
"santander","Alfreda Street, Battersea Park",726,"51.475051","-0.150908","22","21.05","8564",2018,"8185"
"santander","Ansell House, Stepney",500,"51.519806","-0.055731","41","14.22","14436",2018,"12566"
"santander","St. Mary & St. Michael Church, Stepney",464,"51.51417","-0.052099","24","16.88","4226",2018,"3639"
"santander","Royal Avenue 2, Chelsea",280,"51.490083","-0.162418","10","18.34","13847",2018,"14048"
"santander","Beryl Road, Hammersmith",686,"51.488144","-0.222456","26","16.84","7951",2018,"7612"
"santander","Hereford Road, Bayswater",29,"51.513735","-0.193487","22","21.01","11247",2018,"9909"
"santander","Concert Hall Approach 1, South Bank",334,"51.505044","-0.115851","10","26.08","10173",2018,"10200"
"santander","New Globe Walk, Bankside",9,"51.507385","-0.096441","19","18.66","14064",2018,"14044"
"santander","Putney Pier, Wandsworth",302,"51.466907","-0.216573","28","24.17","6383",2018,"8113"
"santander","Tooley Street, Bermondsey",278,"51.503494","-0.079621","27","20.22","27075",2018,"30353"
"santander","Wapping Lane, Wapping",458,"51.504749","-0.057544","28","16.63","15014",2018,"14699"
"santander","Millennium Hotel, Mayfair",366,"51.510919","-0.151126","27","22.10","7807",2018,"8548"
"santander","Hinde Street, Marylebone",210,"51.516814","-0.151926","21","19.64","16789",2018,"17666"
"santander","Great Russell Street, Bloomsbury",15,"51.517727","-0.127854","26","18.90","15619",2018,"16047"
"santander","Rectory Square, Stepney",561,"51.518369","-0.043371","21","16.51","6730",2018,"5951"
"santander","Garnet Street, Shadwell",453,"51.508447","-0.055167","24","18.39","10504",2018,"10059"
"santander","Cleveland Way, Stepney",503,"51.520893","-0.051394","36","14.95","17530",2018,"16889"
"santander","Manbre Road, Hammersmith",599,"51.485743","-0.223616","28","18.07","5376",2018,"4930"
"santander","Cartwright Gardens , Bloomsbury",16,"51.526358","-0.125979","22","16.32","15513",2018,"13495"
"santander","Queensway, Kensington Gardens",224,"51.51031","-0.187402","17","23.39","13652",2018,"13883"
"santander","Malmesbury Road, Bow",472,"51.529452","-0.027616","10","24.66","1706",2018,"1522"
"santander","Tate Modern, Bankside",810,"51.506725","-0.098807","30","20.25","21078",2018,"21812"
"santander","Mallory Street, Marylebone",208,"51.525052","-0.166304","20","16.89","4219",2018,"3063"
"santander","Elysium Place, Fulham",617,"51.471079","-0.207843","21","16.87","5340",2018,"4742"
"santander","Carnegie Street, King's Cross",674,"51.535468","-0.116191","40","18.09","9067",2018,"6333"
"santander","Greenberry Street, St.John's Wood",590,"51.53256","-0.16862","26","21.55","4034",2018,"2989"
"santander","Scala Street, Fitzrovia",13,"51.519915","-0.13604","19","15.02","10268",2018,"10488"
"santander","Tallis Street, Temple",773,"51.511891","-0.107349","21","16.48","21348",2018,"23365"
"santander","Pritchard's Road, Bethnal Green",512,"51.532091","-0.06142","30","16.05","20172",2018,"18243"
"santander","Normand Park, West Kensington",626,"51.484387","-0.204815","24","16.58","15519",2018,"15241"
"santander","Albert Gate, Hyde Park",303,"51.502954","-0.158456","34","38.39","61044",2018,"60614"
"santander","Irene Road, Parsons Green",619,"51.473764","-0.19701","43","17.91","8261",2018,"7951"
"santander","Lisson Grove, St. John's Wood",60,"51.526448","-0.172191","18","18.90","6664",2018,"5372"
"santander","Binfield Road, Stockwell",772,"51.47251","-0.122832","35","18.50","16550",2018,"16118"
"santander","Michael Road, Walham Green",731,"51.477276","-0.18921","37","16.92","9140",2018,"8683"
"santander","Albany Street, The Regent's Park",540,"51.528302","-0.144466","27","18.97","11966",2018,"9182"
"santander","Abbey Orchard Street, Westminster",108,"51.498126","-0.132102","29","19.78","16852",2018,"20327"
"santander","Webber Street , Southwark",80,"51.500694","-0.102091","45","14.33","12322",2018,"10930"
"santander","Kennington Road , Vauxhall",235,"51.495718","-0.110889","36","20.08","12544",2018,"10829"
"santander","Dunston Road , Haggerston",717,"51.536585","-0.075886","42","19.84","26184",2018,"23535"
"santander","Cleaver Street, Kennington",412,"51.488105","-0.110121","17","17.00","6024",2018,"5723"
"santander","Royal College Street, Camden Town",362,"51.536264","-0.133952","55","15.71","9586",2018,"7967"
"santander","Warren Street Station, Euston",239,"51.524438","-0.138019","26","15.24","20245",2018,"19136"
"santander","Wandsworth Rd, Isley Court, Wandsworth Road",612,"51.46926","-0.141813","29","22.45","10055",2018,"9652"
"santander","Shoreditch High Street, Shoreditch",39,"51.526378","-0.078131","41","18.23","32150",2018,"31157"
"santander","Merchant Street, Bow",497,"51.526149","-0.027397","26","19.34","5090",2018,"4845"
"santander","Bermondsey Street, Bermondsey",321,"51.497856","-0.081608","24","15.92","21118",2018,"20582"
"santander","St. Mark's Road, North Kensington",650,"51.516871","-0.213872","23","21.59","8743",2018,"8632"
"santander","Imperial College, Knightsbridge",392,"51.499429","-0.179702","21","17.80","19280",2018,"20147"
"santander","Smith Square, Westminster",281,"51.495806","-0.127575","17","17.46","13025",2018,"13330"
"santander","Roscoe Street, St. Luke's",52,"51.522954","-0.094935","17","13.87","11455",2018,"11358"
"santander","Warwick Avenue Station, Maida Vale",47,"51.523345","-0.183846","19","26.74","16662",2018,"15824"
"santander","Archbishop's Park, Waterloo",641,"51.498242","-0.117496","23","24.61","8784",2018,"9188"
"santander","Langdon Park, Poplar",523,"51.51549","-0.013475","24","30.29","2764",2018,"2978"
"santander","Craven Street, Strand",341,"51.508103","-0.126021","21","21.35","40051",2018,"39525"
"santander","Borough High Street, The Borough",125,"51.500695","-0.094524","21","18.50","12179",2018,"11649"
"santander","Philpot Street, Whitechapel",443,"51.515256","-0.058641","30","15.01","11449",2018,"10177"
"santander","Waterloo Station 1, Waterloo",374,"51.504028","-0.113864","34","15.69","59698",2018,"56885"
"santander","Abbey Orchard Street, Westminster",108,"51.498126","-0.132102","29","18.94","16712",2019,"20810"
"santander","Abbotsbury Road, Holland Park",559,"51.501391","-0.205991","24","19.58","4153",2019,"3965"
"santander","Aberdeen Place, St. John's Wood",394,"51.524826","-0.176268","18","20.01","6240",2019,"4541"
"santander","Aberfeldy Street, Poplar",554,"51.513548","-0.005659","16","28.28","2131",2019,"2092"
"santander","Abingdon Green, Westminster",583,"51.497622","-0.125978","20","22.99","18687",2019,"22864"
"santander","Abingdon Villas, Kensington",38,"51.497388","-0.197246","17","15.44","7702",2019,"7552"
"santander","Abyssinia Close, Clapham Junction",776,"51.460333","-0.167029","19","26.27","5676",2019,"5942"
"santander","Ackroyd Drive, Bow",505,"51.520398","-0.026768","29","17.05","7435",2019,"6746"
"santander","Ada Street, Hackney Central",718,"51.535717","-0.060292","45","19.74","15710",2019,"15938"
"santander","Addison Road, Holland Park",606,"51.504199","-0.210941","25","16.85","4682",2019,"4623"
"santander","Aintree Street, Fulham",616,"51.481021","-0.209973","24","16.11","11131",2019,"10517"
"santander","Albany Street, The Regent's Park",540,"51.528302","-0.144466","27","20.62","11549",2019,"9373"
"santander","Albert Bridge Road, Battersea Park",710,"51.474392","-0.163348","18","22.61","14251",2019,"13910"
"santander","Albert Embankment, Vauxhall",100,"51.490436","-0.122807","24","19.74","10463",2019,"9685"
"santander","Albert Gardens, Stepney",483,"51.51328","-0.047784","32","16.84","10401",2019,"9573"
"santander","Albert Gate, Hyde Park",303,"51.502954","-0.158456","34","37.96","55133",2019,"55632"
"santander","Albert Square, Stockwell",802,"51.47659","-0.118257","32","19.55","10657",2019,"9489"
"santander","Alderney Street, Pimlico",185,"51.488058","-0.140741","13","16.05","14685",2019,"13614"
"santander","Aldersgate Street, Barbican",95,"51.520842","-0.09734","15","12.85","25041",2019,"25669"
"santander","Alfreda Street, Battersea Park",726,"51.475051","-0.150908","22","21.71","8925",2019,"8867"
"santander","Alfred Place, Bloomsbury",364,"51.519656","-0.132339","41","15.90","16549",2019,"16987"
"santander","Allington Street, Victoria",826,"51.496863","-0.142943","28","21.89","34474",2019,"34837"
"santander","All Saints Church, Portobello",661,"51.516321","-0.202609","36","20.17","18846",2019,"18436"
"santander","All Saints' Road, Portobello",643,"51.519043","-0.204764","22","23.03","5672",2019,"5432"
"santander","Alma Road, Wandsworth",724,"51.457991","-0.184806","28","20.73","4217",2019,"3139"
"santander","Alpha Grove, Millwall",576,"51.497304","-0.022793","23","25.80","3314",2019,"3391"
"santander","Ampton Street , Clerkenwell",26,"51.527281","-0.118295","21","13.98","9634",2019,"8387"
"santander","Ansell House, Stepney",500,"51.519806","-0.055731","41","16.15","14959",2019,"13741"
"santander","Antill Road, Mile End",518,"51.528224","-0.037471","29","20.40","8965",2019,"8047"
"santander","Aquatic Centre, Queen Elizabeth Olympic Park",785,"51.54094","-0.010511","62","44.22","41500",2019,"41928"
"santander","Archbishop's Park, Waterloo",641,"51.498242","-0.117496","23","22.85","7345",2019,"7820"
"santander","Argyll Road, Kensington",168,"51.500401","-0.195456","19","19.22","8558",2019,"8440"
"santander","Arlington Road, Camden Town",545,"51.539957","-0.145246","20","23.00","9790",2019,"9844"
"santander","Arundel Street, Temple",79,"51.511726","-0.113856","18","20.43","8226",2019,"8759"
"santander","Ashley Crescent, Battersea",670,"51.467186","-0.152249","28","20.70","8421",2019,"7992"
"santander","Ashley Place, Victoria",177,"51.496161","-0.140948","24","17.76","25498",2019,"27201"
"santander","Ashmole Estate, Oval",654,"51.482678","-0.117662","34","17.31","9558",2019,"8722"
"santander","Aston Street, Stepney",461,"51.516","-0.038775","26","17.59","6384",2019,"5850"
"santander","Austin Road, Battersea Park",664,"51.474376","-0.155443","23","19.57","12173",2019,"11491"
"santander","Aylward Street, Stepney",715,"51.51563","-0.049067","21","14.63","7694",2019,"6600"
"santander","Baker Street, Marylebone",121,"51.518913","-0.156167","22","17.70","13061",2019,"13059"
"santander","Baldwin Street, St. Luke's",319,"51.527026","-0.088543","20","16.03","13457",2019,"13601"
"santander","Bancroft Road, Bethnal Green",520,"51.526041","-0.047218","21","15.25","8115",2019,"7193"
"santander","Bank of England Museum, Bank",340,"51.514441","-0.087587","16","14.72","25185",2019,"27250"
"santander","Bankside Mix, Bankside",193,"51.505818","-0.100186","60","15.65","23540",2019,"26835"
"santander","Barbican Centre, Barbican",275,"51.520045","-0.092176","18","14.85","11912",2019,"12260"
"santander","Barons Court Station, West Kensington",707,"51.490218","-0.215087","31","10.73","16727",2019,"15571"
"santander","Bath Street, St. Luke's",119,"51.525893","-0.090848","18","13.46","21265",2019,"21609"
"santander","Battersea Church Road, Battersea",700,"51.476965","-0.174347","24","17.68","10570",2019,"9826"
"santander","Battersea Park Road, Nine Elms",631,"51.479502","-0.141771","23","16.33","11517",2019,"10706"
"santander","Battersea Power Station, Battersea Park",821,"51.483507","-0.147715","27","22.72","25168",2019,"23925"
"santander","Bayley Street , Bloomsbury",88,"51.518588","-0.132053","24","18.10","18371",2019,"20324"
"santander","Baylis Road, Waterloo",272,"51.501445","-0.110699","22","15.32","28711",2019,"29910"
"santander","Bayswater Road, Hyde Park",153,"51.511933","-0.174411","27","27.82","26611",2019,"26670"
"santander","BBC White City, White City",601,"51.514767","-0.225787","36","21.80","7976",2019,"8656"
"santander","Beaumont Street, Marylebone",242,"51.522008","-0.151359","23","18.53","11484",2019,"11306"
"santander","Bedford Way, Bloomsbury",287,"51.523673","-0.128378","23","17.14","9199",2019,"8980"
"santander","Belford House, Haggerston",699,"51.536654","-0.07023","39","19.27","7332",2019,"5364"
"santander","Belgrave Road, Victoria",268,"51.493204","-0.144133","28","18.92","18448",2019,"18590"
"santander","Belgrave Square, Belgravia",181,"51.499412","-0.152318","21","22.99","7230",2019,"7115"
"santander","Belgrove Street , King's Cross",14,"51.529944","-0.123617","44","15.71","84578",2019,"83725"
"santander","Bell Lane, Liverpool Street",506,"51.517475","-0.075855","23","15.14","12641",2019,"13369"
"santander","Bell Street , Marylebone",182,"51.522029","-0.165843","18","17.16","11030",2019,"10413"
"santander","Belvedere Road 1, South Bank",273,"51.506133","-0.114686","38","21.19","18159",2019,"20847"
"santander","Belvedere Road 2, South Bank",819,"51.50621","-0.114842","38","23.07","13146",2019,"14067"
"santander","Bermondsey Street, Bermondsey",321,"51.497856","-0.081608","24","17.14","20272",2019,"19954"
"santander","Berry Street, Clerkenwell",246,"51.522853","-0.099994","41","14.64","21490",2019,"22829"
"santander","Beryl Road, Hammersmith",686,"51.488144","-0.222456","26","16.54","8573",2019,"8353"
"santander","Bethnal Green Garden, Bethnal Green",444,"51.52568","-0.055312","23","16.27","12592",2019,"11683"
"santander","Bethnal Green Road, Shoreditch",132,"51.523648","-0.074755","38","17.53","40389",2019,"40966"
"santander","Bevington Road West, North Kensington",807,"51.5212","-0.208888","24","23.97","11829",2019,"11588"
"santander","Binfield Road, Stockwell",772,"51.47251","-0.122832","35","14.21","17783",2019,"17809"
"santander","Birkenhead Street, King's Cross",798,"51.5302","-0.122299","27","19.92","17578",2019,"18055"
"santander","Bishop's Avenue, Fulham",681,"51.473037","-0.21475","46","22.69","10092",2019,"10419"
"santander","Bishop's Bridge Road East, Bayswater",592,"51.5171","-0.18377","20","19.03","7667",2019,"6358"
"santander","Bishop's Bridge Road West, Bayswater",568,"51.51616","-0.18697","18","18.66","17011",2019,"16387"
"santander","Blackfriars Road, Southwark",792,"51.505461","-0.104541","42","18.47","14147",2019,"14975"
"santander","Blackfriars Station, St. Paul's",659,"51.511934","-0.103079","34","28.13","352",2019,"336"
"santander","Black Lion Gate, Kensington Gardens",307,"51.509908","-0.187843","24","35.09","54106",2019,"53998"
"santander","Black Prince Road, Vauxhall",310,"51.490868","-0.116912","19","14.59","13428",2019,"12818"
"santander","Blenheim Crescent, Ladbroke Grove",742,"51.515108","-0.208565","22","23.88","11091",2019,"11082"
"santander","Blythe Road West, Shepherd's Bush",657,"51.499681","-0.221792","21","20.77","5630",2019,"5455"
"santander","Bolsover Street, Fitzrovia",28,"51.523518","-0.143614","17","17.69","16559",2019,"15907"
"santander","Bonner Gate, Victoria Park",502,"51.53341","-0.049592","20","24.15","5400",2019,"5257"
"santander","Bonny Street, Camden Town",462,"51.541603","-0.138853","44","20.82","14766",2019,"14454"
"santander","Borough High Street, The Borough",125,"51.500695","-0.094524","21","17.94","12889",2019,"12633"
"santander","Borough Road, Elephant & Castle",92,"51.498898","-0.100441","41","15.78","11490",2019,"11702"
"santander","Boston Place, Marylebone",45,"51.522511","-0.162298","26","18.62","23041",2019,"19073"
"santander","Bourne Street, Belgravia",259,"51.490959","-0.153233","13","18.19","9567",2019,"9652"
"santander","Bouverie Street, Temple",27,"51.513821","-0.107928","33","16.34","17056",2019,"19049"
"santander","Bow Church Station, Bow",495,"51.528169","-0.018703","36","23.76","11419",2019,"10946"
"santander","Bow Road Station, Bow",498,"51.527058","-0.025296","41","18.00","10637",2019,"10026"
"santander","Bradmead, Battersea Park",614,"51.478172","-0.144691","40","21.43","5285",2019,"4789"
"santander","Braham Street, Aldgate",115,"51.514234","-0.073538","33","16.09","19544",2019,"20158"
"santander","Bramham Gardens, Earl's Court",219,"51.490164","-0.190394","29","17.27","15351",2019,"14125"
"santander","Breams Buildings, Holborn",84,"51.515937","-0.111778","25","12.45","10595",2019,"10893"
"santander","Brick Lane Market, Shoreditch",399,"51.522618","-0.071654","24","19.22","15937",2019,"16122"
"santander","Bricklayers Arms, Borough",94,"51.495061","-0.085814","28","19.53","16657",2019,"16104"
"santander","Bridge Avenue, Hammersmith",730,"51.492085","-0.229117","17","26.23","11277",2019,"11646"
"santander","British Museum, Bloomsbury",24,"51.51908","-0.124678","34","18.45","19010",2019,"19398"
"santander","Broadcasting House, Marylebone",6,"51.518118","-0.144229","18","17.89","14484",2019,"15059"
"santander","Broadley Terrace, Marylebone",759,"51.524562","-0.165669","18","17.03","4128",2019,"3317"
"santander","Broadwick Street, Soho",260,"51.513685","-0.135581","18","21.08","14281",2019,"14886"
"santander","Bromley High Street, Bow",484,"51.528828","-0.013258","23","26.92","4635",2019,"4571"
"santander","Brook Green South, Brook Green",634,"51.494347","-0.215805","33","18.10","7908",2019,"7708"
"santander","Broomhouse Lane, Parsons Green",656,"51.468419","-0.199136","29","14.72","4814",2019,"4487"
"santander","Brunswick Square, Bloomsbury",11,"51.523951","-0.122502","24","13.87","13133",2019,"12640"
"santander","Brushfield Street, Liverpool Street",251,"51.518908","-0.079249","33","16.02","42181",2019,"51870"
"santander","Bruton Street, Mayfair",44,"51.510737","-0.144165","21","22.91","10168",2019,"10415"
"santander","Buckingham Gate, Westminster",646,"51.498866","-0.137425","16","23.94","16521",2019,"18821"
"santander","Bunhill Row, Moorgate",331,"51.520859","-0.089888","30","12.85","20001",2019,"23132"
"santander","Burdett Road, Mile End",460,"51.516196","-0.029138","32","17.49","9629",2019,"9533"
"santander","Bury Place, Holborn",562,"51.51746","-0.12335","21","18.00","11334",2019,"11887"
"santander","Butler Place, Westminster",359,"51.49783","-0.135441","18","20.73","8152",2019,"9012"
"santander","Buxton Street 1, Shoreditch",390,"51.521776","-0.068856","40","17.03","6774",2019,"5894"
"santander","Cadogan Close, Victoria Park",692,"51.542119","-0.028942","22","25.80","15710",2019,"15577"
"santander","Cadogan Gardens, Chelsea",395,"51.492462","-0.159919","15","16.86","16812",2019,"17683"
"santander","Cadogan Place, Knightsbridge",211,"51.494645","-0.158106","34","21.30","9364",2019,"10937"
"santander","Caldwell Street, Stockwell",603,"51.477839","-0.116493","43","19.73","9503",2019,"10775"
"santander","Calshot Street , King's Cross",70,"51.531361","-0.11707","24","24.11","5286",2019,"4038"
"santander","Campden Hill Road, Notting Hill",212,"51.506585","-0.199004","17","15.57","5675",2019,"4482"
"santander","Canton Street, Poplar",487,"51.511811","-0.025626","23","19.28","4082",2019,"3856"
"santander","Cantrell Road, Bow",468,"51.521564","-0.022694","24","19.58","2512",2019,"2375"
"santander","Carey Street, Holborn",232,"51.51501","-0.112753","16","14.49","5534",2019,"5844"
"santander","Carnegie Street, King's Cross",674,"51.535468","-0.116191","40","17.81","9004",2019,"6196"
"santander","Cartwright Gardens , Bloomsbury",16,"51.526358","-0.125979","22","16.60","14902",2019,"13570"
"santander","Castlehaven Road, Camden Town",457,"51.542138","-0.145393","29","33.83","15930",2019,"15542"
"santander","Central House, Aldgate",33,"51.5156","-0.070056","18","18.07","16832",2019,"16874"
"santander","Cephas Street, Bethnal Green",501,"51.522561","-0.054883","23","15.17","8219",2019,"7187"
"santander","Chadwell Street, Angel",254,"51.530516","-0.106408","18","14.62","15815",2019,"13531"
"santander","Chancery Lane, Holborn",82,"51.514274","-0.111257","14","15.46","8244",2019,"8798"
"santander","Chapel Place, Marylebone",141,"51.515308","-0.147204","28","17.46","14339",2019,"15520"
"santander","Charing Cross Hospital, Hammersmith",696,"51.487285","-0.217996","21","14.02","9311",2019,"8980"
"santander","Charlbert Street, St. John's Wood",7,"51.5343","-0.168074","16","24.34","7140",2019,"6357"
"santander","Charles II Street, West End",226,"51.508446","-0.131961","24","25.30","14977",2019,"17154"
"santander","Charlotte Street, Fitzrovia",381,"51.51953","-0.135777","14","15.67","12719",2019,"13049"
"santander","Charlotte Terrace, Angel",697,"51.536392","-0.112721","24","17.35","8537",2019,"6316"
"santander","Cheapside, Bank",427,"51.513971","-0.09294","43","15.65","36590",2019,"38676"
"santander","Chelsea Bridge, Pimlico",419,"51.485821","-0.149004","15","19.61","10281",2019,"9363"
"santander","Chelsea Green, Chelsea",220,"51.490665","-0.166485","27","16.85","8203",2019,"8100"
"santander","Chepstow Villas, Notting Hill",151,"51.512137","-0.201555","26","23.56","9948",2019,"7954"
"santander","Cheshire Street, Bethnal Green",445,"51.52388","-0.065076","28","13.85","7591",2019,"6634"
"santander","Chesilton Road, Fulham",727,"51.475698","-0.205876","23","18.44","12798",2019,"11991"
"santander","Chrisp Street Market, Poplar",516,"51.5112","-0.014438","18","23.50","5601",2019,"5728"
"santander","Christian Street, Whitechapel",489,"51.513074","-0.064094","34","13.38","13279",2019,"11437"
"santander","Christopher Street, Liverpool Street",3,"51.521284","-0.084606","31","15.10","13669",2019,"16367"
"santander","City Road, Angel",365,"51.530344","-0.100168","47","15.37","13367",2019,"9778"
"santander","Clapham Common North Side, Clapham Common",768,"51.461344","-0.159322","37","26.97","11332",2019,"10700"
"santander","Clapham Road, Lingham Street, Stockwell",814,"51.471433","-0.123671","29","25.01","5844",2019,"5722"
"santander","Claremont Square, Angel",189,"51.531667","-0.109915","18","14.74","8564",2019,"5451"
"santander","Clarence Walk, Stockwell",630,"51.470733","-0.126994","28","21.33","6017",2019,"5304"
"santander","Clarendon Road, Avondale",663,"51.51323","-0.211594","24","18.00","5722",2019,"5592"
"santander","Clarges Street, Mayfair",528,"51.507326","-0.145827","16","23.76","6320",2019,"6810"
"santander","Clarkson Street, Bethnal Green",507,"51.528692","-0.059091","30","15.44","7122",2019,"5848"
"santander","Claverton Street, Pimlico",291,"51.48484","-0.138089","32","18.49","6680",2019,"5679"
"santander","Cleaver Street, Kennington",412,"51.488105","-0.110121","17","14.50","6118",2019,"5782"
"santander","Clerkenwell Green, Clerkenwell",135,"51.52326","-0.104709","21","14.13","20636",2019,"21097"
"santander","Cleveland Gardens, Bayswater",164,"51.515607","-0.183119","16","18.01","8273",2019,"7072"
"santander","Cleveland Way, Stepney",503,"51.520893","-0.051394","36","14.32","21362",2019,"21180"
"santander","Clifton Road, Maida Vale",255,"51.525575","-0.179593","22","21.51","10183",2019,"9381"
"santander","Clifton Street, Shoreditch",323,"51.523196","-0.083067","23","14.02","9211",2019,"10098"
"santander","Clinton Road, Mile End",522,"51.525941","-0.036017","35","20.37","9285",2019,"9225"
"santander","Cloudesley Road, Angel",93,"51.534409","-0.109025","36","19.28","11341",2019,"6681"
"santander","Colet Gardens, Hammersmith",608,"51.491093","-0.216493","30","24.11","1459",2019,"1459"
"santander","Collingham Gardens, Earl's Court",171,"51.491616","-0.186754","14","15.85","8807",2019,"8164"
"santander","Colombo Street, Southwark",240,"51.505459","-0.105692","14","15.36","4809",2019,"5108"
"santander","Columbia Road, Shoreditch",401,"51.528187","-0.075375","23","17.01","14698",2019,"13001"
"santander","Commercial Street, Shoreditch",40,"51.521271","-0.075579","15","16.69","11412",2019,"11887"
"santander","Concert Hall Approach 1, South Bank",334,"51.505044","-0.115851","10","25.22","10537",2019,"11422"
"santander","Concert Hall Approach 2, South Bank",336,"51.504942","-0.115533","18","22.93","10988",2019,"13579"
"santander","Coomer Place, West Kensington",639,"51.483571","-0.202039","25","14.88","13283",2019,"13016"
"santander","Coram Street, Bloomsbury",796,"51.524","-0.12641","29","16.08","8277",2019,"7069"
"santander","Cotton Garden Estate, Kennington",62,"51.490758","-0.106324","23","14.23","6860",2019,"6050"
"santander","Courland Grove, Wandsworth Road",624,"51.472918","-0.132103","40","16.34","8120",2019,"7442"
"santander","Crabtree Lane, Fulham",655,"51.482945","-0.219346","27","18.13","7498",2019,"7040"
"santander","Cranmer Road, Stockwell",827,"51.479601","-0.111472","22","19.78","12027",2019,"12152"
"santander","Craven Street, Strand",341,"51.508103","-0.126021","21","21.85","39253",2019,"40045"
"santander","Crawford Street, Marylebone",43,"51.52026","-0.157184","18","17.33","13578",2019,"13149"
"santander","Crinan Street, King's Cross",431,"51.534474","-0.122203","20","18.84","7305",2019,"7324"
"santander","Crisp Road, Hammersmith",682,"51.488108","-0.226606","46","23.20","14734",2019,"15404"
"santander","Cromer Street, Bloomsbury",793,"51.528279","-0.119559","28","15.30","7361",2019,"6928"
"santander","Crosswall, Tower",104,"51.511595","-0.077121","33","16.50","38085",2019,"40174"
"santander","Culvert Road, Battersea",750,"51.471096","-0.15785","26","17.24","4505",2019,"4113"
"santander","Curlew Street, Shad Thames",298,"51.50228","-0.074189","19","19.05","22202",2019,"22686"
"santander","Curzon Street, Mayfair",49,"51.507069","-0.145904","15","24.01","8340",2019,"9763"
"santander","Danvers Street, West Chelsea",610,"51.482568","-0.172078","21","19.84","9338",2019,"9133"
"santander","Denyer Street, Knightsbridge",209,"51.493584","-0.165101","30","16.95","6657",2019,"7128"
"santander","Derry Street, Kensington",133,"51.501365","-0.191462","17","16.94","26258",2019,"26695"
"santander","De Vere Gardens, Kensington",36,"51.501737","-0.184981","28","24.56","13733",2019,"12652"
"santander","Devonshire Square, Liverpool Street",87,"51.516468","-0.079685","16","14.93","15663",2019,"16008"
"santander","Devonshire Terrace, Bayswater",397,"51.51348","-0.17977","16","23.69","15440",2019,"14060"
"santander","Devons Road, Bow",496,"51.52512","-0.015578","38","24.03","7472",2019,"7277"
"santander","Dickens Square, Borough",317,"51.496791","-0.093913","31","15.74","5495",2019,"4920"
